var volcanoes = {
"type": "FeatureCollection",
"crs": { "type": "name", "properties": { "name": "urn:ogc:def:crs:OGC:1.3:CRS84" } },

"features": [
{ "type": "Feature", "properties": { "Name": "Abu", "Country": "Japan", "Latitude": "34.5", "Longitude": "131.6", "Elevation": "571", "Type": "Shield volcano", "Status": "Holocene", "marker-symbol": "vol-red" }, "geometry": { "type": "Point", "coordinates": [ 131.6, 34.5 ] } },
{ "type": "Feature", "properties": { "Name": "Acamarachi", "Country": "Chile", "Latitude": "-23.3", "Longitude": "-67.62", "Elevation": "6046", "Type": "Stratovolcano", "Status": "Holocene", "marker-symbol": "vol-red" }, "geometry": { "type": "Point", "coordinates": [ -67.62, -23.3 ] } },
{ "type": "Feature", "properties": { "Name": "Acatenango", "Country": "Guatemala", "Latitude": "14.501", "Longitude": "-90.876", "Elevation": "3976", "Type": "Stratovolcano", "Status": "Historical", "marker-symbol": "vol-red" }, "geometry": { "type": "Point", "coordinates": [ -90.876, 14.501 ] } },
{ "type": "Feature", "properties": { "Name": "Acigol-Nevsehir", "Country": "Turkey", "Latitude": "38.57", "Longitude": "34.52", "Elevation": "1689", "Type": "Maar", "Status": "Holocene", "marker-symbol": "vol-red" }, "geometry": { "type": "Point", "coordinates": [ 34.52, 38.57 ] } },
{ "type": "Feature", "properties": { "Name": "Adams", "Country": "United States", "Latitude": "46.206", "Longitude": "-121.49", "Elevation": "3742", "Type": "Stratovolcano", "Status": "Tephrochronology", "marker-symbol": "vol-red" }, "geometry": { "type": "Point", "coordinates": [ -121.49, 46.206 ] } },
{ "type": "Feature", "properties": { "Name": "Adatara", "Country": "Japan", "Latitude": "37.62", "Longitude": "140.28", "Elevation": "1718", "Type": "Stratovolcano", "Status": "Historical", "marker-symbol": "vol-red" }, "geometry": { "type": "Point", "coordinates": [ 140.28, 37.62 ] } },
{ "type": "Feature", "properties": { "Name": "Adwa", "Country": "Ethiopia", "Latitude": "10.07", "Longitude": "40.84", "Elevation": "1733", "Type": "Stratovolcano", "Status": "Holocene", "marker-symbol": "vol-red" }, "geometry": { "type": "Point", "coordinates": [ 40.84, 10.07 ] } },
{ "type": "Feature", "properties": { "Name": "Afdera", "Country": "Ethiopia", "Latitude": "13.08", "Longitude": "40.85", "Elevation": "1295", "Type": "Stratovolcano", "Status": "Holocene", "marker-symbol": "vol-red" }, "geometry": { "type": "Point", "coordinates": [ 40.85, 13.08 ] } },
{ "type": "Feature", "properties": { "Name": "Agmagan-Karadag", "Country": "Armenia", "Latitude": "40.275", "Longitude": "44.75", "Elevation": "3560", "Type": "Volcanic field", "Status": "Holocene", "marker-symbol": "vol-red" }, "geometry": { "type": "Point", "coordinates": [ 44.75, 40.275 ] } },
{ "type": "Feature", "properties": { "Name": "Agrigan", "Country": "United States", "Latitude": "18.77", "Longitude": "145.67", "Elevation": "965", "Type": "Stratovolcano", "Status": "Historical", "marker-symbol": "vol-red" }, "geometry": { "type": "Point", "coordinates": [ 145.67, 18.77 ] } },
{ "type": "Feature", "properties": { "Name": "Agua", "Country": "Guatemala", "Latitude": "14.465", "Longitude": "-90.743", "Elevation": "3760", "Type": "Stratovolcano", "Status": "Holocene", "marker-symbol": "vol-red" }, "geometry": { "type": "Point", "coordinates": [ -90.743, 14.465 ] } },
{ "type": "Feature", "properties": { "Name": "Agua de Pau", "Country": "Portugal", "Latitude": "37.77", "Longitude": "-25.47", "Elevation": "947", "Type": "Stratovolcano", "Status": "Historical", "marker-symbol": "vol-red" }, "geometry": { "type": "Point", "coordinates": [ -25.47, 37.77 ] } },
{ "type": "Feature", "properties": { "Name": "Aguilera", "Country": "Chile", "Latitude": "-50.17", "Longitude": "-73.83", "Elevation": "0", "Type": "Stratovolcano", "Status": "Radiocarbon", "marker-symbol": "vol-red" }, "geometry": { "type": "Point", "coordinates": [ -73.83, -50.17 ] } },
{ "type": "Feature", "properties": { "Name": "Agung", "Country": "Indonesia", "Latitude": "-8.342", "Longitude": "115.508", "Elevation": "3142", "Type": "Stratovolcano", "Status": "Historical", "marker-symbol": "vol-red" }, "geometry": { "type": "Point", "coordinates": [ 115.508, -8.342 ] } },
{ "type": "Feature", "properties": { "Name": "Ahyi", "Country": "United States", "Latitude": "20.42", "Longitude": "145.03", "Elevation": "-137", "Type": "Submarine volcano", "Status": "Uncertain", "marker-symbol": "vol-red" }, "geometry": { "type": "Point", "coordinates": [ 145.03, 20.42 ] } },
{ "type": "Feature", "properties": { "Name": "Akademia Nauk", "Country": "Russia", "Latitude": "53.98", "Longitude": "159.45", "Elevation": "1180", "Type": "Stratovolcano", "Status": "Historical", "marker-symbol": "vol-red" }, "geometry": { "type": "Point", "coordinates": [ 159.45, 53.98 ] } },
{ "type": "Feature", "properties": { "Name": "Akademia Nauk", "Country": "Russia", "Latitude": "53.983", "Longitude": "159.45", "Elevation": "1180", "Type": "Stratovolcanoes", "Status": "Historical", "marker-symbol": "vol-red" }, "geometry": { "type": "Point", "coordinates": [ 159.45, 53.983 ] } },
{ "type": "Feature", "properties": { "Name": "Akagi", "Country": "Japan", "Latitude": "36.53", "Longitude": "139.18", "Elevation": "1828", "Type": "Stratovolcano", "Status": "Historical", "marker-symbol": "vol-red" }, "geometry": { "type": "Point", "coordinates": [ 139.18, 36.53 ] } },
{ "type": "Feature", "properties": { "Name": "Akan", "Country": "Japan", "Latitude": "43.38", "Longitude": "144.02", "Elevation": "1499", "Type": "Caldera", "Status": "Historical", "marker-symbol": "vol-red" }, "geometry": { "type": "Point", "coordinates": [ 144.02, 43.38 ] } },
{ "type": "Feature", "properties": { "Name": "Akhtang", "Country": "Russia", "Latitude": "55.43", "Longitude": "158.65", "Elevation": "1956", "Type": "Shield volcano", "Status": "Holocene", "marker-symbol": "vol-red" }, "geometry": { "type": "Point", "coordinates": [ 158.65, 55.43 ] } },
{ "type": "Feature", "properties": { "Name": "Akita-Komaga-take", "Country": "Japan", "Latitude": "39.75", "Longitude": "140.8", "Elevation": "1637", "Type": "Stratovolcano", "Status": "Historical", "marker-symbol": "vol-red" }, "geometry": { "type": "Point", "coordinates": [ 140.8, 39.75 ] } },
{ "type": "Feature", "properties": { "Name": "Akita-Yake-yama", "Country": "Japan", "Latitude": "39.97", "Longitude": "140.77", "Elevation": "1366", "Type": "Complex volcano", "Status": "Historical", "marker-symbol": "vol-red" }, "geometry": { "type": "Point", "coordinates": [ 140.77, 39.97 ] } },
{ "type": "Feature", "properties": { "Name": "Akuseki-jima", "Country": "Japan", "Latitude": "29.45", "Longitude": "129.6", "Elevation": "586", "Type": "Stratovolcano", "Status": "Holocene", "marker-symbol": "vol-red" }, "geometry": { "type": "Point", "coordinates": [ 129.6, 29.45 ] } },
{ "type": "Feature", "properties": { "Name": "Akuseki-jima", "Country": "Japan", "Latitude": "29.461", "Longitude": "129.597", "Elevation": "584", "Type": "Stratovolcanoes", "Status": "Holocene?", "marker-symbol": "vol-red" }, "geometry": { "type": "Point", "coordinates": [ 129.597, 29.461 ] } },
{ "type": "Feature", "properties": { "Name": "Akutan", "Country": "United States", "Latitude": "54.13", "Longitude": "-165.97", "Elevation": "1303", "Type": "Stratovolcano", "Status": "Historical", "marker-symbol": "vol-red" }, "geometry": { "type": "Point", "coordinates": [ -165.97, 54.13 ] } },
{ "type": "Feature", "properties": { "Name": "Alaid", "Country": "Russia", "Latitude": "50.858", "Longitude": "155.55", "Elevation": "2339", "Type": "Stratovolcano", "Status": "Historical", "marker-symbol": "vol-red" }, "geometry": { "type": "Point", "coordinates": [ 155.55, 50.858 ] } },
{ "type": "Feature", "properties": { "Name": "Alamagan", "Country": "United States", "Latitude": "17.6", "Longitude": "145.83", "Elevation": "744", "Type": "Stratovolcano", "Status": "Radiocarbon", "marker-symbol": "vol-red" }, "geometry": { "type": "Point", "coordinates": [ 145.83, 17.6 ] } },
{ "type": "Feature", "properties": { "Name": "Alayta", "Country": "Ethiopia", "Latitude": "12.88", "Longitude": "40.57", "Elevation": "1501", "Type": "Shield volcano", "Status": "Historical", "marker-symbol": "vol-red" }, "geometry": { "type": "Point", "coordinates": [ 40.57, 12.88 ] } },
{ "type": "Feature", "properties": { "Name": "Albano, Monte", "Country": "Italy", "Latitude": "41.73", "Longitude": "12.7", "Elevation": "949", "Type": "Caldera", "Status": "Holocene", "marker-symbol": "vol-red" }, "geometry": { "type": "Point", "coordinates": [ 12.7, 41.73 ] } },
{ "type": "Feature", "properties": { "Name": "Alcedo, Volcan", "Country": "Ecuador", "Latitude": "-0.43", "Longitude": "-91.12", "Elevation": "1130", "Type": "Shield volcano", "Status": "Historical", "marker-symbol": "vol-red" }, "geometry": { "type": "Point", "coordinates": [ -91.12, -0.43 ] } },
{ "type": "Feature", "properties": { "Name": "Ale Bagu", "Country": "Ethiopia", "Latitude": "13.52", "Longitude": "40.63", "Elevation": "1031", "Type": "Stratovolcano", "Status": "Holocene", "marker-symbol": "vol-red" }, "geometry": { "type": "Point", "coordinates": [ 40.63, 13.52 ] } },
{ "type": "Feature", "properties": { "Name": "Alid", "Country": "Eritrea", "Latitude": "14.88", "Longitude": "39.92", "Elevation": "904", "Type": "Stratovolcano", "Status": "Holocene", "marker-symbol": "vol-red" }, "geometry": { "type": "Point", "coordinates": [ 39.92, 14.88 ] } },
{ "type": "Feature", "properties": { "Name": "Alligator Lake", "Country": "Canada", "Latitude": "60.42", "Longitude": "-135.42", "Elevation": "2217", "Type": "Volcanic field", "Status": "Holocene", "marker-symbol": "vol-red" }, "geometry": { "type": "Point", "coordinates": [ -135.42, 60.42 ] } },
{ "type": "Feature", "properties": { "Name": "Almolonga", "Country": "Guatemala", "Latitude": "14.82", "Longitude": "-91.48", "Elevation": "3197", "Type": "Stratovolcano", "Status": "Historical", "marker-symbol": "vol-red" }, "geometry": { "type": "Point", "coordinates": [ -91.48, 14.82 ] } },
{ "type": "Feature", "properties": { "Name": "Alney-Chashakondzha", "Country": "Russia", "Latitude": "56.7", "Longitude": "159.65", "Elevation": "2598", "Type": "Stratovolcano", "Status": "Holocene", "marker-symbol": "vol-red" }, "geometry": { "type": "Point", "coordinates": [ 159.65, 56.7 ] } },
{ "type": "Feature", "properties": { "Name": "Alngey", "Country": "Russia", "Latitude": "57.7", "Longitude": "160.4", "Elevation": "1853", "Type": "Stratovolcano", "Status": "Holocene", "marker-symbol": "vol-red" }, "geometry": { "type": "Point", "coordinates": [ 160.4, 57.7 ] } },
{ "type": "Feature", "properties": { "Name": "Alu", "Country": "Ethiopia", "Latitude": "13.82", "Longitude": "40.55", "Elevation": "429", "Type": "Fissure vent", "Status": "Holocene", "marker-symbol": "vol-red" }, "geometry": { "type": "Point", "coordinates": [ 40.55, 13.82 ] } },
{ "type": "Feature", "properties": { "Name": "Alutu", "Country": "Ethiopia", "Latitude": "7.77", "Longitude": "38.78", "Elevation": "2335", "Type": "Stratovolcano", "Status": "Holocene", "marker-symbol": "vol-red" }, "geometry": { "type": "Point", "coordinates": [ 38.78, 7.77 ] } },
{ "type": "Feature", "properties": { "Name": "Amak", "Country": "United States", "Latitude": "55.42", "Longitude": "-163.15", "Elevation": "513", "Type": "Stratovolcano", "Status": "Historical", "marker-symbol": "vol-red" }, "geometry": { "type": "Point", "coordinates": [ -163.15, 55.42 ] } },
{ "type": "Feature", "properties": { "Name": "Amasing", "Country": "Indonesia", "Latitude": "-0.55", "Longitude": "127.5", "Elevation": "1030", "Type": "Stratovolcano", "Status": "Holocene", "marker-symbol": "vol-red" }, "geometry": { "type": "Point", "coordinates": [ 127.5, -0.55 ] } },
{ "type": "Feature", "properties": { "Name": "Ambalatungan Group", "Country": "Philippines", "Latitude": "17.32", "Longitude": "121.1", "Elevation": "2329", "Type": "Compound volcano", "Status": "Fumarolic", "marker-symbol": "vol-red" }, "geometry": { "type": "Point", "coordinates": [ 121.1, 17.32 ] } },
{ "type": "Feature", "properties": { "Name": "Ambang", "Country": "Indonesia", "Latitude": "0.75", "Longitude": "124.42", "Elevation": "1795", "Type": "Complex volcano", "Status": "Historical", "marker-symbol": "vol-red" }, "geometry": { "type": "Point", "coordinates": [ 124.42, 0.75 ] } },
{ "type": "Feature", "properties": { "Name": "Ambitle", "Country": "Papua New Guinea", "Latitude": "-4.08", "Longitude": "153.65", "Elevation": "450", "Type": "Stratovolcano", "Status": "Radiocarbon", "marker-symbol": "vol-red" }, "geometry": { "type": "Point", "coordinates": [ 153.65, -4.08 ] } },
{ "type": "Feature", "properties": { "Name": "Amboy", "Country": "United States", "Latitude": "34.55", "Longitude": "-115.78", "Elevation": "288", "Type": "Cinder cone", "Status": "Holocene", "marker-symbol": "vol-red" }, "geometry": { "type": "Point", "coordinates": [ -115.78, 34.55 ] } },
{ "type": "Feature", "properties": { "Name": "Ambre-Bobaomby", "Country": "Madagascar", "Latitude": "-12.48", "Longitude": "49.1", "Elevation": "1475", "Type": "Volcanic field", "Status": "Holocene", "marker-symbol": "vol-red" }, "geometry": { "type": "Point", "coordinates": [ 49.1, -12.48 ] } },
{ "type": "Feature", "properties": { "Name": "Ambrym", "Country": "Vanuatu", "Latitude": "-16.25", "Longitude": "168.12", "Elevation": "1334", "Type": "Pyroclastic shield", "Status": "Historical", "marker-symbol": "vol-red" }, "geometry": { "type": "Point", "coordinates": [ 168.12, -16.25 ] } },
{ "type": "Feature", "properties": { "Name": "Amorong", "Country": "Philippines", "Latitude": "15.828", "Longitude": "120.805", "Elevation": "376", "Type": "Unknown", "Status": "Fumarolic", "marker-symbol": "vol-red" }, "geometry": { "type": "Point", "coordinates": [ 120.805, 15.828 ] } },
{ "type": "Feature", "properties": { "Name": "Amsterdam Island", "Country": "Indian Ocean", "Latitude": "-37.83", "Longitude": "77.52", "Elevation": "881", "Type": "Stratovolcano", "Status": "Holocene", "marker-symbol": "vol-red" }, "geometry": { "type": "Point", "coordinates": [ 77.52, -37.83 ] } },
{ "type": "Feature", "properties": { "Name": "Amukta", "Country": "United States", "Latitude": "52.5", "Longitude": "-171.25", "Elevation": "1066", "Type": "Stratovolcano", "Status": "Historical", "marker-symbol": "vol-red" }, "geometry": { "type": "Point", "coordinates": [ -171.25, 52.5 ] } },
{ "type": "Feature", "properties": { "Name": "Anatahan", "Country": "United States", "Latitude": "16.35", "Longitude": "145.67", "Elevation": "788", "Type": "Stratovolcano", "Status": "Holocene", "marker-symbol": "vol-red" }, "geometry": { "type": "Point", "coordinates": [ 145.67, 16.35 ] } },
{ "type": "Feature", "properties": { "Name": "Anaun", "Country": "Russia", "Latitude": "56.32", "Longitude": "158.83", "Elevation": "1828", "Type": "Stratovolcano", "Status": "Holocene", "marker-symbol": "vol-red" }, "geometry": { "type": "Point", "coordinates": [ 158.83, 56.32 ] } },
{ "type": "Feature", "properties": { "Name": "Andahua Valley", "Country": "Peru", "Latitude": "-15.42", "Longitude": "-72.33", "Elevation": "4713", "Type": "Cinder cone", "Status": "Holocene", "marker-symbol": "vol-red" }, "geometry": { "type": "Point", "coordinates": [ -72.33, -15.42 ] } },
{ "type": "Feature", "properties": { "Name": "Andrus", "Country": "Antarctica", "Latitude": "-75.8", "Longitude": "-132.33", "Elevation": "2978", "Type": "Shield volcano", "Status": "Holocene", "marker-symbol": "vol-red" }, "geometry": { "type": "Point", "coordinates": [ -132.33, -75.8 ] } },
{ "type": "Feature", "properties": { "Name": "Aneityum", "Country": "Vanuatu", "Latitude": "-20.2", "Longitude": "169.83", "Elevation": "852", "Type": "Stratovolcano", "Status": "Holocene", "marker-symbol": "vol-red" }, "geometry": { "type": "Point", "coordinates": [ 169.83, -20.2 ] } },
{ "type": "Feature", "properties": { "Name": "Aniakchak", "Country": "United States", "Latitude": "56.88", "Longitude": "-158.17", "Elevation": "1341", "Type": "Caldera", "Status": "Historical", "marker-symbol": "vol-red" }, "geometry": { "type": "Point", "coordinates": [ -158.17, 56.88 ] } },
{ "type": "Feature", "properties": { "Name": "Ankaizina Field", "Country": "Madagascar", "Latitude": "-14.3", "Longitude": "48.67", "Elevation": "2878", "Type": "Cinder cone", "Status": "Holocene", "marker-symbol": "vol-red" }, "geometry": { "type": "Point", "coordinates": [ 48.67, -14.3 ] } },
{ "type": "Feature", "properties": { "Name": "Ankaratra Field", "Country": "Madagascar", "Latitude": "-19.4", "Longitude": "47.2", "Elevation": "2644", "Type": "Cinder cone", "Status": "Holocene", "marker-symbol": "vol-red" }, "geometry": { "type": "Point", "coordinates": [ 47.2, -19.4 ] } },
{ "type": "Feature", "properties": { "Name": "Antillanca Group", "Country": "Chile", "Latitude": "-40.771", "Longitude": "-72.153", "Elevation": "1990", "Type": "Stratovolcano", "Status": "Holocene", "marker-symbol": "vol-red" }, "geometry": { "type": "Point", "coordinates": [ -72.153, -40.771 ] } },
{ "type": "Feature", "properties": { "Name": "Antipodes Island", "Country": "New Zealand", "Latitude": "-49.683", "Longitude": "178.767", "Elevation": "402", "Type": "Pyroclastic cones", "Status": "Holocene?", "marker-symbol": "vol-red" }, "geometry": { "type": "Point", "coordinates": [ 178.767, -49.683 ] } },
{ "type": "Feature", "properties": { "Name": "Antisana", "Country": "Ecuador", "Latitude": "-0.481", "Longitude": "-78.141", "Elevation": "5753", "Type": "Stratovolcano", "Status": "Historical", "marker-symbol": "vol-red" }, "geometry": { "type": "Point", "coordinates": [ -78.141, -0.481 ] } },
{ "type": "Feature", "properties": { "Name": "Antofagasta de la Sierra", "Country": "Argentina", "Latitude": "-26.083", "Longitude": "-67.5", "Elevation": "4000", "Type": "Scoria cones", "Status": "Holocene", "marker-symbol": "vol-red" }, "geometry": { "type": "Point", "coordinates": [ -67.5, -26.083 ] } },
{ "type": "Feature", "properties": { "Name": "Antofagasta de la Sierra", "Country": "Argentina", "Latitude": "-26.08", "Longitude": "-67.5", "Elevation": "4000", "Type": "Scoria cone", "Status": "Holocene", "marker-symbol": "vol-red" }, "geometry": { "type": "Point", "coordinates": [ -67.5, -26.08 ] } },
{ "type": "Feature", "properties": { "Name": "Antofalla", "Country": "Argentina", "Latitude": "-25.53", "Longitude": "-68", "Elevation": "6100", "Type": "Stratovolcano", "Status": "Holocene", "marker-symbol": "vol-red" }, "geometry": { "type": "Point", "coordinates": [ -68.0, -25.53 ] } },
{ "type": "Feature", "properties": { "Name": "Antuco", "Country": "Chile", "Latitude": "-37.406", "Longitude": "-71.349", "Elevation": "2979", "Type": "Stratovolcano", "Status": "Historical", "marker-symbol": "vol-red" }, "geometry": { "type": "Point", "coordinates": [ -71.349, -37.406 ] } },
{ "type": "Feature", "properties": { "Name": "Aoba", "Country": "Vanuatu", "Latitude": "-15.4", "Longitude": "167.83", "Elevation": "1496", "Type": "Shield volcano", "Status": "Historical", "marker-symbol": "vol-red" }, "geometry": { "type": "Point", "coordinates": [ 167.83, -15.4 ] } },
{ "type": "Feature", "properties": { "Name": "Aoga-shima", "Country": "Japan", "Latitude": "32.45", "Longitude": "139.77", "Elevation": "423", "Type": "Stratovolcano", "Status": "Historical", "marker-symbol": "vol-red" }, "geometry": { "type": "Point", "coordinates": [ 139.77, 32.45 ] } },
{ "type": "Feature", "properties": { "Name": "Apaneca Range", "Country": "El Salvador", "Latitude": "13.891", "Longitude": "-89.786", "Elevation": "2036", "Type": "Stratovolcano", "Status": "Holocene", "marker-symbol": "vol-red" }, "geometry": { "type": "Point", "coordinates": [ -89.786, 13.891 ] } },
{ "type": "Feature", "properties": { "Name": "Apastepeque Field", "Country": "El Salvador", "Latitude": "13.72", "Longitude": "-88.77", "Elevation": "700", "Type": "Volcanic field", "Status": "Holocene", "marker-symbol": "vol-red" }, "geometry": { "type": "Point", "coordinates": [ -88.77, 13.72 ] } },
{ "type": "Feature", "properties": { "Name": "Apo", "Country": "Philippines", "Latitude": "6.987", "Longitude": "125.273", "Elevation": "2954", "Type": "Stratovolcano", "Status": "Fumarolic", "marker-symbol": "vol-red" }, "geometry": { "type": "Point", "coordinates": [ 125.273, 6.987 ] } },
{ "type": "Feature", "properties": { "Name": "Apoyeque", "Country": "Nicaragua", "Latitude": "12.242", "Longitude": "-86.342", "Elevation": "518", "Type": "Pyroclastic shield", "Status": "Radiocarbon", "marker-symbol": "vol-red" }, "geometry": { "type": "Point", "coordinates": [ -86.342, 12.242 ] } },
{ "type": "Feature", "properties": { "Name": "Aracar", "Country": "Argentina", "Latitude": "-24.27", "Longitude": "-67.77", "Elevation": "6082", "Type": "Stratovolcano", "Status": "Historical", "marker-symbol": "vol-red" }, "geometry": { "type": "Point", "coordinates": [ -67.77, -24.27 ] } },
{ "type": "Feature", "properties": { "Name": "Aracar", "Country": "Argentina", "Latitude": "-24.25", "Longitude": "-67.767", "Elevation": "6082", "Type": "Stratovolcano", "Status": "Uncertain", "marker-symbol": "vol-red" }, "geometry": { "type": "Point", "coordinates": [ -67.767, -24.25 ] } },
{ "type": "Feature", "properties": { "Name": "Aragats", "Country": "Armenia", "Latitude": "40.55", "Longitude": "44.12", "Elevation": "4090", "Type": "Stratovolcano", "Status": "Holocene", "marker-symbol": "vol-red" }, "geometry": { "type": "Point", "coordinates": [ 44.12, 40.55 ] } },
{ "type": "Feature", "properties": { "Name": "Aramuaca, Laguna", "Country": "El Salvador", "Latitude": "13.428", "Longitude": "-88.105", "Elevation": "180", "Type": "Maar", "Status": "Holocene", "marker-symbol": "vol-red" }, "geometry": { "type": "Point", "coordinates": [ -88.105, 13.428 ] } },
{ "type": "Feature", "properties": { "Name": "Ararat", "Country": "Turkey", "Latitude": "39.7", "Longitude": "44.28", "Elevation": "5165", "Type": "Stratovolcano", "Status": "Holocene", "marker-symbol": "vol-red" }, "geometry": { "type": "Point", "coordinates": [ 44.28, 39.7 ] } },
{ "type": "Feature", "properties": { "Name": "Arayat", "Country": "Philippines", "Latitude": "15.2", "Longitude": "120.742", "Elevation": "1026", "Type": "Stratovolcano", "Status": "Holocene", "marker-symbol": "vol-red" }, "geometry": { "type": "Point", "coordinates": [ 120.742, 15.2 ] } },
{ "type": "Feature", "properties": { "Name": "Ardoukoba", "Country": "Djibouti", "Latitude": "11.58", "Longitude": "42.47", "Elevation": "298", "Type": "Fissure vent", "Status": "Historical", "marker-symbol": "vol-red" }, "geometry": { "type": "Point", "coordinates": [ 42.47, 11.58 ] } },
{ "type": "Feature", "properties": { "Name": "Arenal", "Country": "Costa Rica", "Latitude": "10.463", "Longitude": "-84.703", "Elevation": "1657", "Type": "Stratovolcano", "Status": "Historical", "marker-symbol": "vol-red" }, "geometry": { "type": "Point", "coordinates": [ -84.703, 10.463 ] } },
{ "type": "Feature", "properties": { "Name": "Arenales", "Country": "Chile", "Latitude": "-47.2", "Longitude": "-73.483", "Elevation": "3437", "Type": "Stratovolcano", "Status": "Historical", "marker-symbol": "vol-red" }, "geometry": { "type": "Point", "coordinates": [ -73.483, -47.2 ] } },
{ "type": "Feature", "properties": { "Name": "Arhab, Harra of", "Country": "Yemen", "Latitude": "15.63", "Longitude": "44.08", "Elevation": "3100", "Type": "Volcanic field", "Status": "Historical", "marker-symbol": "vol-red" }, "geometry": { "type": "Point", "coordinates": [ 44.08, 15.63 ] } },
{ "type": "Feature", "properties": { "Name": "Arjuno-Welirang", "Country": "Indonesia", "Latitude": "-7.725", "Longitude": "112.58", "Elevation": "3339", "Type": "Stratovolcano", "Status": "Historical", "marker-symbol": "vol-red" }, "geometry": { "type": "Point", "coordinates": [ 112.58, -7.725 ] } },
{ "type": "Feature", "properties": { "Name": "Arshan", "Country": "China", "Latitude": "47.5", "Longitude": "120.7", "Elevation": "", "Type": "Cinder cones", "Status": "Radiocarbon", "marker-symbol": "vol-red" }, "geometry": { "type": "Point", "coordinates": [ 120.7, 47.5 ] } },
{ "type": "Feature", "properties": { "Name": "Asama", "Country": "Japan", "Latitude": "36.4", "Longitude": "138.53", "Elevation": "2560", "Type": "Complex volcano", "Status": "Historical", "marker-symbol": "vol-red" }, "geometry": { "type": "Point", "coordinates": [ 138.53, 36.4 ] } },
{ "type": "Feature", "properties": { "Name": "Asavyo", "Country": "Ethiopia", "Latitude": "13.07", "Longitude": "41.6", "Elevation": "1200", "Type": "Shield volcano", "Status": "Holocene", "marker-symbol": "vol-red" }, "geometry": { "type": "Point", "coordinates": [ 41.6, 13.07 ] } },
{ "type": "Feature", "properties": { "Name": "Ascension", "Country": "Atlantic Ocean", "Latitude": "-7.95", "Longitude": "-14.37", "Elevation": "858", "Type": "Stratovolcano", "Status": "Holocene", "marker-symbol": "vol-red" }, "geometry": { "type": "Point", "coordinates": [ -14.37, -7.95 ] } },
{ "type": "Feature", "properties": { "Name": "Askja", "Country": "Iceland", "Latitude": "65.03", "Longitude": "-16.75", "Elevation": "1516", "Type": "Stratovolcano", "Status": "Historical", "marker-symbol": "vol-red" }, "geometry": { "type": "Point", "coordinates": [ -16.75, 65.03 ] } },
{ "type": "Feature", "properties": { "Name": "Aso", "Country": "Japan", "Latitude": "32.88", "Longitude": "131.1", "Elevation": "1592", "Type": "Caldera", "Status": "Historical", "marker-symbol": "vol-red" }, "geometry": { "type": "Point", "coordinates": [ 131.1, 32.88 ] } },
{ "type": "Feature", "properties": { "Name": "Assab Volc Field", "Country": "Eritrea", "Latitude": "12.95", "Longitude": "42.43", "Elevation": "987", "Type": "Volcanic field", "Status": "Holocene", "marker-symbol": "vol-red" }, "geometry": { "type": "Point", "coordinates": [ 42.43, 12.95 ] } },
{ "type": "Feature", "properties": { "Name": "Asuncion", "Country": "United States", "Latitude": "19.67", "Longitude": "145.4", "Elevation": "857", "Type": "Stratovolcano", "Status": "Historical", "marker-symbol": "vol-red" }, "geometry": { "type": "Point", "coordinates": [ 145.4, 19.67 ] } },
{ "type": "Feature", "properties": { "Name": "Atacazo", "Country": "Ecuador", "Latitude": "-0.353", "Longitude": "-78.617", "Elevation": "4463", "Type": "Stratovolcano", "Status": "Radiocarbon", "marker-symbol": "vol-red" }, "geometry": { "type": "Point", "coordinates": [ -78.617, -0.353 ] } },
{ "type": "Feature", "properties": { "Name": "Atakor Volc Field", "Country": "Algeria", "Latitude": "23.333", "Longitude": "5.833", "Elevation": "2918", "Type": "Scoria cones", "Status": "Holocene", "marker-symbol": "vol-red" }, "geometry": { "type": "Point", "coordinates": [ 5.833, 23.333 ] } },
{ "type": "Feature", "properties": { "Name": "Atitlan", "Country": "Guatemala", "Latitude": "14.583", "Longitude": "-91.186", "Elevation": "3535", "Type": "Stratovolcano", "Status": "Historical", "marker-symbol": "vol-red" }, "geometry": { "type": "Point", "coordinates": [ -91.186, 14.583 ] } },
{ "type": "Feature", "properties": { "Name": "Atka", "Country": "United States", "Latitude": "52.38", "Longitude": "-174.15", "Elevation": "1533", "Type": "Stratovolcano", "Status": "Historical", "marker-symbol": "vol-red" }, "geometry": { "type": "Point", "coordinates": [ -174.15, 52.38 ] } },
{ "type": "Feature", "properties": { "Name": "Atlasova", "Country": "Russia", "Latitude": "57.97", "Longitude": "160.65", "Elevation": "1764", "Type": "Shield volcano", "Status": "Holocene", "marker-symbol": "vol-red" }, "geometry": { "type": "Point", "coordinates": [ 160.65, 57.97 ] } },
{ "type": "Feature", "properties": { "Name": "Atlixcos, Cerro Los", "Country": "Mexico", "Latitude": "19.809", "Longitude": "-96.526", "Elevation": "800", "Type": "Shield volcano", "Status": "Holocene", "marker-symbol": "vol-red" }, "geometry": { "type": "Point", "coordinates": [ -96.526, 19.809 ] } },
{ "type": "Feature", "properties": { "Name": "Atsonupuri", "Country": "Russia", "Latitude": "44.804", "Longitude": "147.13", "Elevation": "1205", "Type": "Stratovolcano", "Status": "Historical", "marker-symbol": "vol-red" }, "geometry": { "type": "Point", "coordinates": [ 147.13, 44.804 ] } },
{ "type": "Feature", "properties": { "Name": "Atuel, Caldera del", "Country": "Argentina", "Latitude": "-34.65", "Longitude": "-70.05", "Elevation": "5189", "Type": "Caldera", "Status": "Holocene", "marker-symbol": "vol-red" }, "geometry": { "type": "Point", "coordinates": [ -70.05, -34.65 ] } },
{ "type": "Feature", "properties": { "Name": "Auckland Field", "Country": "New Zealand", "Latitude": "-36.9", "Longitude": "174.87", "Elevation": "260", "Type": "Volcanic field", "Status": "Radiocarbon", "marker-symbol": "vol-red" }, "geometry": { "type": "Point", "coordinates": [ 174.87, -36.9 ] } },
{ "type": "Feature", "properties": { "Name": "Augustine", "Country": "United States", "Latitude": "59.37", "Longitude": "-153.42", "Elevation": "1252", "Type": "Lava dome", "Status": "Historical", "marker-symbol": "vol-red" }, "geometry": { "type": "Point", "coordinates": [ -153.42, 59.37 ] } },
{ "type": "Feature", "properties": { "Name": "Avachinsky", "Country": "Russia", "Latitude": "53.255", "Longitude": "158.83", "Elevation": "2741", "Type": "Stratovolcano", "Status": "Historical", "marker-symbol": "vol-red" }, "geometry": { "type": "Point", "coordinates": [ 158.83, 53.255 ] } },
{ "type": "Feature", "properties": { "Name": "Awu", "Country": "Indonesia", "Latitude": "3.67", "Longitude": "125.5", "Elevation": "1320", "Type": "Stratovolcano", "Status": "Historical", "marker-symbol": "vol-red" }, "geometry": { "type": "Point", "coordinates": [ 125.5, 3.67 ] } },
{ "type": "Feature", "properties": { "Name": "Axial Seamount", "Country": "Pacific Ocean", "Latitude": "45.95", "Longitude": "-130", "Elevation": "-1500", "Type": "Submarine volcano", "Status": "Historical", "marker-symbol": "vol-red" }, "geometry": { "type": "Point", "coordinates": [ -130.0, 45.95 ] } },
{ "type": "Feature", "properties": { "Name": "Ayelu", "Country": "Ethiopia", "Latitude": "10.082", "Longitude": "40.702", "Elevation": "2145", "Type": "Stratovolcano", "Status": "Holocene", "marker-symbol": "vol-red" }, "geometry": { "type": "Point", "coordinates": [ 40.702, 10.082 ] } },
{ "type": "Feature", "properties": { "Name": "Azufral, Volcan", "Country": "Colombia", "Latitude": "1.08", "Longitude": "-77.68", "Elevation": "4070", "Type": "Stratovolcano", "Status": "Radiocarbon", "marker-symbol": "vol-red" }, "geometry": { "type": "Point", "coordinates": [ -77.68, 1.08 ] } },
{ "type": "Feature", "properties": { "Name": "Azul, Cerro", "Country": "Ecuador", "Latitude": "-0.9", "Longitude": "-91.42", "Elevation": "1690", "Type": "Shield volcano", "Status": "Historical", "marker-symbol": "vol-red" }, "geometry": { "type": "Point", "coordinates": [ -91.42, -0.9 ] } },
{ "type": "Feature", "properties": { "Name": "Azul, Cerro [Quizapu]", "Country": "Chile", "Latitude": "-35.653", "Longitude": "-70.761", "Elevation": "3788", "Type": "Stratovolcano", "Status": "Historical", "marker-symbol": "vol-red" }, "geometry": { "type": "Point", "coordinates": [ -70.761, -35.653 ] } },
{ "type": "Feature", "properties": { "Name": "Azul, Volcan", "Country": "Nicaragua", "Latitude": "12.53", "Longitude": "-83.87", "Elevation": "201", "Type": "Cinder cone", "Status": "Holocene", "marker-symbol": "vol-red" }, "geometry": { "type": "Point", "coordinates": [ -83.87, 12.53 ] } },
{ "type": "Feature", "properties": { "Name": "Azuma", "Country": "Japan", "Latitude": "37.73", "Longitude": "140.25", "Elevation": "2024", "Type": "Stratovolcano", "Status": "Historical", "marker-symbol": "vol-red" }, "geometry": { "type": "Point", "coordinates": [ 140.25, 37.73 ] } },
{ "type": "Feature", "properties": { "Name": "Babuyan Claro", "Country": "Philippines", "Latitude": "19.523", "Longitude": "121.94", "Elevation": "1180", "Type": "Stratovolcano", "Status": "Historical", "marker-symbol": "vol-red" }, "geometry": { "type": "Point", "coordinates": [ 121.94, 19.523 ] } },
{ "type": "Feature", "properties": { "Name": "Bachelor", "Country": "United States", "Latitude": "43.979", "Longitude": "-121.688", "Elevation": "2763", "Type": "Stratovolcano", "Status": "Tephrochronology", "marker-symbol": "vol-red" }, "geometry": { "type": "Point", "coordinates": [ -121.688, 43.979 ] } },
{ "type": "Feature", "properties": { "Name": "Bagana", "Country": "Papua New Guinea", "Latitude": "-6.14", "Longitude": "155.195", "Elevation": "1750", "Type": "Lava cone", "Status": "Historical", "marker-symbol": "vol-red" }, "geometry": { "type": "Point", "coordinates": [ 155.195, -6.14 ] } },
{ "type": "Feature", "properties": { "Name": "Bakenin", "Country": "Russia", "Latitude": "53.905", "Longitude": "158.07", "Elevation": "2278", "Type": "Stratovolcano", "Status": "Tephrochronology", "marker-symbol": "vol-red" }, "geometry": { "type": "Point", "coordinates": [ 158.07, 53.905 ] } },
{ "type": "Feature", "properties": { "Name": "Baker", "Country": "United States", "Latitude": "48.786", "Longitude": "-121.82", "Elevation": "3285", "Type": "Stratovolcano", "Status": "Historical", "marker-symbol": "vol-red" }, "geometry": { "type": "Point", "coordinates": [ -121.82, 48.786 ] } },
{ "type": "Feature", "properties": { "Name": "Bal Haf, Harra of", "Country": "Yemen", "Latitude": "14.05", "Longitude": "48.33", "Elevation": "233", "Type": "Volcanic field", "Status": "Holocene", "marker-symbol": "vol-red" }, "geometry": { "type": "Point", "coordinates": [ 48.33, 14.05 ] } },
{ "type": "Feature", "properties": { "Name": "Balatocan", "Country": "Philippines", "Latitude": "8.8", "Longitude": "124.92", "Elevation": "2450", "Type": "Compound volcano", "Status": "Fumarolic", "marker-symbol": "vol-red" }, "geometry": { "type": "Point", "coordinates": [ 124.92, 8.8 ] } },
{ "type": "Feature", "properties": { "Name": "Balbi", "Country": "Papua New Guinea", "Latitude": "-5.83", "Longitude": "154.98", "Elevation": "2715", "Type": "Stratovolcano", "Status": "Holocene", "marker-symbol": "vol-red" }, "geometry": { "type": "Point", "coordinates": [ 154.98, -5.83 ] } },
{ "type": "Feature", "properties": { "Name": "Bald Knoll", "Country": "United States", "Latitude": "37.328", "Longitude": "-112.408", "Elevation": "2135", "Type": "Cinder cone", "Status": "Holocene", "marker-symbol": "vol-red" }, "geometry": { "type": "Point", "coordinates": [ -112.408, 37.328 ] } },
{ "type": "Feature", "properties": { "Name": "Baluan", "Country": "United States", "Latitude": "-2.57", "Longitude": "147.28", "Elevation": "254", "Type": "Stratovolcano", "Status": "Holocene", "marker-symbol": "vol-red" }, "geometry": { "type": "Point", "coordinates": [ 147.28, -2.57 ] } },
{ "type": "Feature", "properties": { "Name": "Baluran", "Country": "Indonesia", "Latitude": "-7.85", "Longitude": "114.37", "Elevation": "1247", "Type": "Stratovolcano", "Status": "Holocene", "marker-symbol": "vol-red" }, "geometry": { "type": "Point", "coordinates": [ 114.37, -7.85 ] } },
{ "type": "Feature", "properties": { "Name": "Balut", "Country": "Philippines", "Latitude": "5.4", "Longitude": "125.375", "Elevation": "852", "Type": "Stratovolcano", "Status": "Holocene", "marker-symbol": "vol-red" }, "geometry": { "type": "Point", "coordinates": [ 125.375, 5.4 ] } },
{ "type": "Feature", "properties": { "Name": "Bam", "Country": "Papua New Guinea", "Latitude": "-3.6", "Longitude": "144.85", "Elevation": "685", "Type": "Stratovolcano", "Status": "Historical", "marker-symbol": "vol-red" }, "geometry": { "type": "Point", "coordinates": [ 144.85, -3.6 ] } },
{ "type": "Feature", "properties": { "Name": "Bamus", "Country": "Papua New Guinea", "Latitude": "-5.2", "Longitude": "151.23", "Elevation": "2248", "Type": "Stratovolcano", "Status": "Anthropology", "marker-symbol": "vol-red" }, "geometry": { "type": "Point", "coordinates": [ 151.23, -5.2 ] } },
{ "type": "Feature", "properties": { "Name": "Banahao", "Country": "Philippines", "Latitude": "14.07", "Longitude": "121.48", "Elevation": "2158", "Type": "Complex volcano", "Status": "Holocene", "marker-symbol": "vol-red" }, "geometry": { "type": "Point", "coordinates": [ 121.48, 14.07 ] } },
{ "type": "Feature", "properties": { "Name": "Banda Api", "Country": "Pacific Ocean", "Latitude": "-4.525", "Longitude": "129.871", "Elevation": "640", "Type": "Caldera", "Status": "Historical", "marker-symbol": "vol-red" }, "geometry": { "type": "Point", "coordinates": [ 129.871, -4.525 ] } },
{ "type": "Feature", "properties": { "Name": "Bandai", "Country": "Japan", "Latitude": "37.6", "Longitude": "140.08", "Elevation": "1819", "Type": "Stratovolcano", "Status": "Historical", "marker-symbol": "vol-red" }, "geometry": { "type": "Point", "coordinates": [ 140.08, 37.6 ] } },
{ "type": "Feature", "properties": { "Name": "Banua Wuhu", "Country": "Indonesia", "Latitude": "3.138", "Longitude": "125.491", "Elevation": "-5", "Type": "Submarine volcano", "Status": "Historical", "marker-symbol": "vol-red" }, "geometry": { "type": "Point", "coordinates": [ 125.491, 3.138 ] } },
{ "type": "Feature", "properties": { "Name": "Baransky", "Country": "Russia", "Latitude": "45.1", "Longitude": "148.02", "Elevation": "1132", "Type": "Stratovolcano", "Status": "Historical", "marker-symbol": "vol-red" }, "geometry": { "type": "Point", "coordinates": [ 148.02, 45.1 ] } },
{ "type": "Feature", "properties": { "Name": "Barcena", "Country": "Mexico", "Latitude": "19.3", "Longitude": "-110.82", "Elevation": "332", "Type": "Cinder cone", "Status": "Historical", "marker-symbol": "vol-red" }, "geometry": { "type": "Point", "coordinates": [ -110.82, 19.3 ] } },
{ "type": "Feature", "properties": { "Name": "Bardarbunga", "Country": "Iceland", "Latitude": "64.63", "Longitude": "-17.53", "Elevation": "2000", "Type": "Stratovolcano", "Status": "Historical", "marker-symbol": "vol-red" }, "geometry": { "type": "Point", "coordinates": [ -17.53, 64.63 ] } },
{ "type": "Feature", "properties": { "Name": "Barkhatnaya Sopka", "Country": "Russia", "Latitude": "52.823", "Longitude": "158.27", "Elevation": "870", "Type": "Lava dome", "Status": "Tephrochronology", "marker-symbol": "vol-red" }, "geometry": { "type": "Point", "coordinates": [ 158.27, 52.823 ] } },
{ "type": "Feature", "properties": { "Name": "Barren Island", "Country": "India", "Latitude": "12.292", "Longitude": "93.875", "Elevation": "354", "Type": "Stratovolcano", "Status": "Historical", "marker-symbol": "vol-red" }, "geometry": { "type": "Point", "coordinates": [ 93.875, 12.292 ] } },
{ "type": "Feature", "properties": { "Name": "Barrier, The", "Country": "Kenya", "Latitude": "2.32", "Longitude": "36.57", "Elevation": "1032", "Type": "Shield volcano", "Status": "Historical", "marker-symbol": "vol-red" }, "geometry": { "type": "Point", "coordinates": [ 36.57, 2.32 ] } },
{ "type": "Feature", "properties": { "Name": "Baru", "Country": "Panama", "Latitude": "8.8", "Longitude": "-82.558", "Elevation": "3477", "Type": "Complex volcano", "Status": "Historical", "marker-symbol": "vol-red" }, "geometry": { "type": "Point", "coordinates": [ -82.558, 8.8 ] } },
{ "type": "Feature", "properties": { "Name": "Barva", "Country": "Costa Rica", "Latitude": "10.135", "Longitude": "-84.1", "Elevation": "2906", "Type": "Complex volcano", "Status": "Tephrochronology", "marker-symbol": "vol-red" }, "geometry": { "type": "Point", "coordinates": [ -84.1, 10.135 ] } },
{ "type": "Feature", "properties": { "Name": "Bas Dong Nai", "Country": "Vietnam", "Latitude": "10.8", "Longitude": "107.2", "Elevation": "392", "Type": "Volcanic field", "Status": "Holocene", "marker-symbol": "vol-red" }, "geometry": { "type": "Point", "coordinates": [ 107.2, 10.8 ] } },
{ "type": "Feature", "properties": { "Name": "Batur", "Country": "Indonesia", "Latitude": "-8.242", "Longitude": "115.375", "Elevation": "1717", "Type": "Caldera", "Status": "Historical", "marker-symbol": "vol-red" }, "geometry": { "type": "Point", "coordinates": [ 115.375, -8.242 ] } },
{ "type": "Feature", "properties": { "Name": "Bayo, Cerro", "Country": "Argentina", "Latitude": "-25.42", "Longitude": "-68.58", "Elevation": "5401", "Type": "Complex volcano", "Status": "Holocene", "marker-symbol": "vol-red" }, "geometry": { "type": "Point", "coordinates": [ -68.58, -25.42 ] } },
{ "type": "Feature", "properties": { "Name": "Bayonnaise Rocks", "Country": "Japan", "Latitude": "31.92", "Longitude": "139.92", "Elevation": "10", "Type": "Submarine volcano", "Status": "Historical", "marker-symbol": "vol-red" }, "geometry": { "type": "Point", "coordinates": [ 139.92, 31.92 ] } },
{ "type": "Feature", "properties": { "Name": "Bayuda Volc Field", "Country": "Sudan", "Latitude": "18.33", "Longitude": "32.75", "Elevation": "0", "Type": "Cinder cone", "Status": "Radiocarbon", "marker-symbol": "vol-red" }, "geometry": { "type": "Point", "coordinates": [ 32.75, 18.33 ] } },
{ "type": "Feature", "properties": { "Name": "Bazman", "Country": "Iran", "Latitude": "28.07", "Longitude": "60", "Elevation": "3490", "Type": "Stratovolcano", "Status": "Fumarolic", "marker-symbol": "vol-red" }, "geometry": { "type": "Point", "coordinates": [ 60.0, 28.07 ] } },
{ "type": "Feature", "properties": { "Name": "Behm Canal-Rudyerd Bay", "Country": "United States", "Latitude": "55.32", "Longitude": "-131.05", "Elevation": "500", "Type": "Cinder cone", "Status": "Holocene", "marker-symbol": "vol-red" }, "geometry": { "type": "Point", "coordinates": [ -131.05, 55.32 ] } },
{ "type": "Feature", "properties": { "Name": "Belenkaya", "Country": "Russia", "Latitude": "51.75", "Longitude": "157.27", "Elevation": "892", "Type": "Stratovolcano", "Status": "Holocene", "marker-symbol": "vol-red" }, "geometry": { "type": "Point", "coordinates": [ 157.27, 51.75 ] } },
{ "type": "Feature", "properties": { "Name": "Belirang-Beriti", "Country": "Indonesia", "Latitude": "-2.82", "Longitude": "102.18", "Elevation": "1958", "Type": "Compound volcano", "Status": "Fumarolic", "marker-symbol": "vol-red" }, "geometry": { "type": "Point", "coordinates": [ 102.18, -2.82 ] } },
{ "type": "Feature", "properties": { "Name": "Belknap", "Country": "United States", "Latitude": "44.285", "Longitude": "-121.841", "Elevation": "2095", "Type": "Shield volcano", "Status": "Radiocarbon", "marker-symbol": "vol-red" }, "geometry": { "type": "Point", "coordinates": [ -121.841, 44.285 ] } },
{ "type": "Feature", "properties": { "Name": "Bely", "Country": "Russia", "Latitude": "57.88", "Longitude": "160.53", "Elevation": "2080", "Type": "Shield volcano", "Status": "Holocene", "marker-symbol": "vol-red" }, "geometry": { "type": "Point", "coordinates": [ 160.53, 57.88 ] } },
{ "type": "Feature", "properties": { "Name": "Berlin", "Country": "Antarctica", "Latitude": "-76.05", "Longitude": "-136", "Elevation": "3478", "Type": "Shield volcano", "Status": "Fumarolic", "marker-symbol": "vol-red" }, "geometry": { "type": "Point", "coordinates": [ -136.0, -76.05 ] } },
{ "type": "Feature", "properties": { "Name": "Beru", "Country": "Ethiopia", "Latitude": "8.95", "Longitude": "39.75", "Elevation": "1100", "Type": "Volcanic field", "Status": "Holocene", "marker-symbol": "vol-red" }, "geometry": { "type": "Point", "coordinates": [ 39.75, 8.95 ] } },
{ "type": "Feature", "properties": { "Name": "Berutarube", "Country": "Russia", "Latitude": "44.47", "Longitude": "146.93", "Elevation": "1220", "Type": "Stratovolcano", "Status": "Holocene", "marker-symbol": "vol-red" }, "geometry": { "type": "Point", "coordinates": [ 146.93, 44.47 ] } },
{ "type": "Feature", "properties": { "Name": "Besar", "Country": "Indonesia", "Latitude": "-4.43", "Longitude": "103.67", "Elevation": "1899", "Type": "Stratovolcano", "Status": "Historical", "marker-symbol": "vol-red" }, "geometry": { "type": "Point", "coordinates": [ 103.67, -4.43 ] } },
{ "type": "Feature", "properties": { "Name": "Bezymianny", "Country": "Russia", "Latitude": "55.978", "Longitude": "160.587", "Elevation": "2882", "Type": "Stratovolcano", "Status": "Historical", "marker-symbol": "vol-red" }, "geometry": { "type": "Point", "coordinates": [ 160.587, 55.978 ] } },
{ "type": "Feature", "properties": { "Name": "Bibinoi", "Country": "Indonesia", "Latitude": "-0.78", "Longitude": "127.72", "Elevation": "900", "Type": "Stratovolcano", "Status": "Holocene", "marker-symbol": "vol-red" }, "geometry": { "type": "Point", "coordinates": [ 127.72, -0.78 ] } },
{ "type": "Feature", "properties": { "Name": "Big Cave", "Country": "United States", "Latitude": "40.955", "Longitude": "-121.365", "Elevation": "1259", "Type": "Shield volcano", "Status": "Holocene", "marker-symbol": "vol-red" }, "geometry": { "type": "Point", "coordinates": [ -121.365, 40.955 ] } },
{ "type": "Feature", "properties": { "Name": "Bilate River Field", "Country": "Ethiopia", "Latitude": "7.07", "Longitude": "38.1", "Elevation": "1700", "Type": "Maar", "Status": "Holocene", "marker-symbol": "vol-red" }, "geometry": { "type": "Point", "coordinates": [ 38.1, 7.07 ] } },
{ "type": "Feature", "properties": { "Name": "Biliran", "Country": "Philippines", "Latitude": "11.523", "Longitude": "124.534", "Elevation": "1187", "Type": "Compound volcano", "Status": "Historical", "marker-symbol": "vol-red" }, "geometry": { "type": "Point", "coordinates": [ 124.534, 11.523 ] } },
{ "type": "Feature", "properties": { "Name": "Billy Mitchell", "Country": "Papua New Guinea", "Latitude": "-6.092", "Longitude": "155.225", "Elevation": "1544", "Type": "Pyroclastic shield", "Status": "Radiocarbon", "marker-symbol": "vol-red" }, "geometry": { "type": "Point", "coordinates": [ 155.225, -6.092 ] } },
{ "type": "Feature", "properties": { "Name": "Bir Borhut", "Country": "Yemen", "Latitude": "15.55", "Longitude": "50.63", "Elevation": "0", "Type": "Volcanic field", "Status": "Holocene", "marker-symbol": "vol-red" }, "geometry": { "type": "Point", "coordinates": [ 50.63, 15.55 ] } },
{ "type": "Feature", "properties": { "Name": "Birk, Harrat al", "Country": "Saudi Arabia", "Latitude": "18.367", "Longitude": "41.633", "Elevation": "381", "Type": "Volcanic field", "Status": "Holocene", "marker-symbol": "vol-red" }, "geometry": { "type": "Point", "coordinates": [ 41.633, 18.367 ] } },
{ "type": "Feature", "properties": { "Name": "Bishoftu Volc Field", "Country": "Ethiopia", "Latitude": "8.78", "Longitude": "38.98", "Elevation": "1850", "Type": "Fissure vent", "Status": "Holocene", "marker-symbol": "vol-red" }, "geometry": { "type": "Point", "coordinates": [ 38.98, 8.78 ] } },
{ "type": "Feature", "properties": { "Name": "Biu Plateau", "Country": "Nigeria", "Latitude": "10.75", "Longitude": "12", "Elevation": "0", "Type": "Volcanic field", "Status": "Holocene", "marker-symbol": "vol-red" }, "geometry": { "type": "Point", "coordinates": [ 12.0, 10.75 ] } },
{ "type": "Feature", "properties": { "Name": "Black Peak", "Country": "United States", "Latitude": "56.53", "Longitude": "-158.8", "Elevation": "1032", "Type": "Stratovolcano", "Status": "Radiocarbon", "marker-symbol": "vol-red" }, "geometry": { "type": "Point", "coordinates": [ -158.8, 56.53 ] } },
{ "type": "Feature", "properties": { "Name": "Black Rock Desert", "Country": "United States", "Latitude": "38.97", "Longitude": "-112.5", "Elevation": "1800", "Type": "Volcanic field", "Status": "Radiocarbon", "marker-symbol": "vol-red" }, "geometry": { "type": "Point", "coordinates": [ -112.5, 38.97 ] } },
{ "type": "Feature", "properties": { "Name": "Blanca, Loma", "Country": "Chile", "Latitude": "-36.286", "Longitude": "-71.009", "Elevation": "2268", "Type": "Stratovolcano", "Status": "Holocene", "marker-symbol": "vol-red" }, "geometry": { "type": "Point", "coordinates": [ -71.009, -36.286 ] } },
{ "type": "Feature", "properties": { "Name": "Bliznets", "Country": "Russia", "Latitude": "56.97", "Longitude": "159.78", "Elevation": "1244", "Type": "Stratovolcano", "Status": "Holocene", "marker-symbol": "vol-red" }, "geometry": { "type": "Point", "coordinates": [ 159.78, 56.97 ] } },
{ "type": "Feature", "properties": { "Name": "Bliznetsy", "Country": "Russia", "Latitude": "57.35", "Longitude": "161.367", "Elevation": "265", "Type": "Lava cone", "Status": "Radiocarbon", "marker-symbol": "vol-red" }, "geometry": { "type": "Point", "coordinates": [ 161.367, 57.35 ] } },
{ "type": "Feature", "properties": { "Name": "Blue Lake Crater", "Country": "United States", "Latitude": "44.42", "Longitude": "-121.77", "Elevation": "1230", "Type": "Maar", "Status": "Radiocarbon", "marker-symbol": "vol-red" }, "geometry": { "type": "Point", "coordinates": [ -121.77, 44.42 ] } },
{ "type": "Feature", "properties": { "Name": "Blup Blup", "Country": "Papua New Guinea", "Latitude": "-3.508", "Longitude": "144.62", "Elevation": "402", "Type": "Stratovolcano", "Status": "Holocene", "marker-symbol": "vol-red" }, "geometry": { "type": "Point", "coordinates": [ 144.62, -3.508 ] } },
{ "type": "Feature", "properties": { "Name": "Bobrof", "Country": "United States", "Latitude": "51.9", "Longitude": "-177.43", "Elevation": "738", "Type": "Stratovolcano", "Status": "Holocene", "marker-symbol": "vol-red" }, "geometry": { "type": "Point", "coordinates": [ -177.43, 51.9 ] } },
{ "type": "Feature", "properties": { "Name": "Bogatyr Ridge", "Country": "Russia", "Latitude": "44.83", "Longitude": "147.37", "Elevation": "1634", "Type": "Stratovolcano", "Status": "Holocene", "marker-symbol": "vol-red" }, "geometry": { "type": "Point", "coordinates": [ 147.37, 44.83 ] } },
{ "type": "Feature", "properties": { "Name": "Bogoslof", "Country": "United States", "Latitude": "53.93", "Longitude": "-168.03", "Elevation": "101", "Type": "Submarine volcano", "Status": "Historical", "marker-symbol": "vol-red" }, "geometry": { "type": "Point", "coordinates": [ -168.03, 53.93 ] } },
{ "type": "Feature", "properties": { "Name": "Boisa", "Country": "Papua New Guinea", "Latitude": "-3.994", "Longitude": "144.963", "Elevation": "240", "Type": "Stratovolcano", "Status": "Holocene", "marker-symbol": "vol-red" }, "geometry": { "type": "Point", "coordinates": [ 144.963, -3.994 ] } },
{ "type": "Feature", "properties": { "Name": "Bola", "Country": "Papua New Guinea", "Latitude": "-5.15", "Longitude": "150.03", "Elevation": "1155", "Type": "Stratovolcano", "Status": "Holocene", "marker-symbol": "vol-red" }, "geometry": { "type": "Point", "coordinates": [ 150.03, -5.15 ] } },
{ "type": "Feature", "properties": { "Name": "Bolshe-Bannaya", "Country": "Russia", "Latitude": "52.9", "Longitude": "157.78", "Elevation": "1200", "Type": "Lava dome", "Status": "Holocene", "marker-symbol": "vol-red" }, "geometry": { "type": "Point", "coordinates": [ 157.78, 52.9 ] } },
{ "type": "Feature", "properties": { "Name": "Bolshoi Payalpan", "Country": "Russia", "Latitude": "55.88", "Longitude": "157.78", "Elevation": "1906", "Type": "Shield volcano", "Status": "Holocene", "marker-symbol": "vol-red" }, "geometry": { "type": "Point", "coordinates": [ 157.78, 55.88 ] } },
{ "type": "Feature", "properties": { "Name": "Bolshoi Semiachik", "Country": "Russia", "Latitude": "54.32", "Longitude": "160.02", "Elevation": "1720", "Type": "Stratovolcano", "Status": "Radiocarbon", "marker-symbol": "vol-red" }, "geometry": { "type": "Point", "coordinates": [ 160.02, 54.32 ] } },
{ "type": "Feature", "properties": { "Name": "Bolshoi-Kekuknaysky", "Country": "Russia", "Latitude": "56.47", "Longitude": "157.8", "Elevation": "1401", "Type": "Shield volcano", "Status": "Holocene", "marker-symbol": "vol-red" }, "geometry": { "type": "Point", "coordinates": [ 157.8, 56.47 ] } },
{ "type": "Feature", "properties": { "Name": "Bombalai", "Country": "Malaysia", "Latitude": "4.4", "Longitude": "117.88", "Elevation": "531", "Type": "Pyroclastic cone", "Status": "Holocene", "marker-symbol": "vol-red" }, "geometry": { "type": "Point", "coordinates": [ 117.88, 4.4 ] } },
{ "type": "Feature", "properties": { "Name": "Bona-Churchill", "Country": "United States", "Latitude": "61.38", "Longitude": "-141.75", "Elevation": "5005", "Type": "Stratovolcano", "Status": "Radiocarbon", "marker-symbol": "vol-red" }, "geometry": { "type": "Point", "coordinates": [ -141.75, 61.38 ] } },
{ "type": "Feature", "properties": { "Name": "Boomerang Seamount", "Country": "Antarctica", "Latitude": "-37.721", "Longitude": "77.825", "Elevation": "-650", "Type": "Submarine volcano", "Status": "Historical", "marker-symbol": "vol-red" }, "geometry": { "type": "Point", "coordinates": [ 77.825, -37.721 ] } },
{ "type": "Feature", "properties": { "Name": "Bora-Bericcio Complex", "Country": "Ethiopia", "Latitude": "8.27", "Longitude": "39.03", "Elevation": "2285", "Type": "Pumice cone", "Status": "Holocene", "marker-symbol": "vol-red" }, "geometry": { "type": "Point", "coordinates": [ 39.03, 8.27 ] } },
{ "type": "Feature", "properties": { "Name": "Borale Ale", "Country": "Ethiopia", "Latitude": "13.725", "Longitude": "40.6", "Elevation": "668", "Type": "Stratovolcano", "Status": "Holocene", "marker-symbol": "vol-red" }, "geometry": { "type": "Point", "coordinates": [ 40.6, 13.725 ] } },
{ "type": "Feature", "properties": { "Name": "Borawli", "Country": "Ethiopia", "Latitude": "13.3", "Longitude": "40.98", "Elevation": "812", "Type": "Stratovolcano", "Status": "Holocene", "marker-symbol": "vol-red" }, "geometry": { "type": "Point", "coordinates": [ 40.98, 13.3 ] } },
{ "type": "Feature", "properties": { "Name": "Borawli Complex", "Country": "Ethiopia", "Latitude": "11.63", "Longitude": "41.45", "Elevation": "875", "Type": "Lava dome", "Status": "Holocene", "marker-symbol": "vol-red" }, "geometry": { "type": "Point", "coordinates": [ 41.45, 11.63 ] } },
{ "type": "Feature", "properties": { "Name": "Boset-Bericha", "Country": "Ethiopia", "Latitude": "8.558", "Longitude": "39.475", "Elevation": "2447", "Type": "Stratovolcano", "Status": "Holocene", "marker-symbol": "vol-red" }, "geometry": { "type": "Point", "coordinates": [ 39.475, 8.558 ] } },
{ "type": "Feature", "properties": { "Name": "Bouvet", "Country": "Bouvet I.", "Latitude": "-54.42", "Longitude": "3.35", "Elevation": "780", "Type": "Shield volcano", "Status": "Magnetism", "marker-symbol": "vol-red" }, "geometry": { "type": "Point", "coordinates": [ 3.35, -54.42 ] } },
{ "type": "Feature", "properties": { "Name": "Bratan", "Country": "Indonesia", "Latitude": "-8.28", "Longitude": "115.13", "Elevation": "2276", "Type": "Caldera", "Status": "Holocene", "marker-symbol": "vol-red" }, "geometry": { "type": "Point", "coordinates": [ 115.13, -8.28 ] } },
{ "type": "Feature", "properties": { "Name": "Brava", "Country": "Cape Verde", "Latitude": "14.85", "Longitude": "-24.72", "Elevation": "900", "Type": "Stratovolcano", "Status": "Holocene", "marker-symbol": "vol-red" }, "geometry": { "type": "Point", "coordinates": [ -24.72, 14.85 ] } },
{ "type": "Feature", "properties": { "Name": "Bravo, Cerro", "Country": "Colombia", "Latitude": "5.092", "Longitude": "-75.3", "Elevation": "4000", "Type": "Stratovolcano", "Status": "Radiocarbon", "marker-symbol": "vol-red" }, "geometry": { "type": "Point", "coordinates": [ -75.3, 5.092 ] } },
{ "type": "Feature", "properties": { "Name": "Bravo, Cerro", "Country": "Colombia", "Latitude": "5.092", "Longitude": "-75.3", "Elevation": "4000", "Type": "Stratovolcano", "Status": "Radiocarbon", "marker-symbol": "vol-red" }, "geometry": { "type": "Point", "coordinates": [ -75.3, 5.092 ] } },
{ "type": "Feature", "properties": { "Name": "Brennisteinsfjoll", "Country": "Iceland", "Latitude": "63.92", "Longitude": "-21.83", "Elevation": "626", "Type": "Crater rows", "Status": "Historical", "marker-symbol": "vol-red" }, "geometry": { "type": "Point", "coordinates": [ -21.83, 63.92 ] } },
{ "type": "Feature", "properties": { "Name": "Bridge River Cones", "Country": "Canada", "Latitude": "50.8", "Longitude": "-123.4", "Elevation": "2500", "Type": "Volcanic field", "Status": "Holocene", "marker-symbol": "vol-red" }, "geometry": { "type": "Point", "coordinates": [ -123.4, 50.8 ] } },
{ "type": "Feature", "properties": { "Name": "Bridgeman Island", "Country": "Antarctica", "Latitude": "-62.05", "Longitude": "-56.75", "Elevation": "240", "Type": "Stratovolcano", "Status": "Uncertain", "marker-symbol": "vol-red" }, "geometry": { "type": "Point", "coordinates": [ -56.75, -62.05 ] } },
{ "type": "Feature", "properties": { "Name": "Brimstone Island", "Country": "New Zealand", "Latitude": "-30.23", "Longitude": "-178.92", "Elevation": "-2000", "Type": "Submarine volcano", "Status": "Uncertain", "marker-symbol": "vol-red" }, "geometry": { "type": "Point", "coordinates": [ -178.92, -30.23 ] } },
{ "type": "Feature", "properties": { "Name": "Bristol Island", "Country": "Antarctica", "Latitude": "-59.03", "Longitude": "-26.58", "Elevation": "1100", "Type": "Stratovolcano", "Status": "Historical", "marker-symbol": "vol-red" }, "geometry": { "type": "Point", "coordinates": [ -26.58, -59.03 ] } },
{ "type": "Feature", "properties": { "Name": "Brothers", "Country": "New Zealand", "Latitude": "-34.875", "Longitude": "179.075", "Elevation": "-1350", "Type": "Submarine volcano", "Status": "Fumarolic", "marker-symbol": "vol-red" }, "geometry": { "type": "Point", "coordinates": [ 179.075, -34.875 ] } },
{ "type": "Feature", "properties": { "Name": "Brushy Butte", "Country": "United States", "Latitude": "41.178", "Longitude": "-121.443", "Elevation": "1174", "Type": "Shield volcano", "Status": "Holocene", "marker-symbol": "vol-red" }, "geometry": { "type": "Point", "coordinates": [ -121.443, 41.178 ] } },
{ "type": "Feature", "properties": { "Name": "Buckle Island", "Country": "Antarctica", "Latitude": "-66.8", "Longitude": "163.25", "Elevation": "1239", "Type": "Stratovolcano", "Status": "Historical", "marker-symbol": "vol-red" }, "geometry": { "type": "Point", "coordinates": [ 163.25, -66.8 ] } },
{ "type": "Feature", "properties": { "Name": "Bud Dajo", "Country": "Philippines", "Latitude": "5.95", "Longitude": "121.07", "Elevation": "440", "Type": "Pyroclastic cone", "Status": "Historical", "marker-symbol": "vol-red" }, "geometry": { "type": "Point", "coordinates": [ 121.07, 5.95 ] } },
{ "type": "Feature", "properties": { "Name": "Bufumbira", "Country": "Uganda", "Latitude": "-1.23", "Longitude": "29.72", "Elevation": "2440", "Type": "Cinder cone", "Status": "Holocene", "marker-symbol": "vol-red" }, "geometry": { "type": "Point", "coordinates": [ 29.72, -1.23 ] } },
{ "type": "Feature", "properties": { "Name": "Buldir", "Country": "United States", "Latitude": "52.37", "Longitude": "175.98", "Elevation": "656", "Type": "Stratovolcano", "Status": "Holocene", "marker-symbol": "vol-red" }, "geometry": { "type": "Point", "coordinates": [ 175.98, 52.37 ] } },
{ "type": "Feature", "properties": { "Name": "Bulusan", "Country": "Philippines", "Latitude": "12.77", "Longitude": "124.05", "Elevation": "1565", "Type": "Stratovolcano", "Status": "Historical", "marker-symbol": "vol-red" }, "geometry": { "type": "Point", "coordinates": [ 124.05, 12.77 ] } },
{ "type": "Feature", "properties": { "Name": "Bunyaruguru Field", "Country": "Uganda", "Latitude": "-0.2", "Longitude": "30.08", "Elevation": "1554", "Type": "Explosion crater", "Status": "Holocene", "marker-symbol": "vol-red" }, "geometry": { "type": "Point", "coordinates": [ 30.08, -0.2 ] } },
{ "type": "Feature", "properties": { "Name": "Burney, Monte", "Country": "Chile", "Latitude": "-52.33", "Longitude": "-73.4", "Elevation": "1758", "Type": "Stratovolcano", "Status": "Historical", "marker-symbol": "vol-red" }, "geometry": { "type": "Point", "coordinates": [ -73.4, -52.33 ] } },
{ "type": "Feature", "properties": { "Name": "Bus-Obo", "Country": "Mongolia", "Latitude": "47.12", "Longitude": "109.08", "Elevation": "1162", "Type": "Cinder cone", "Status": "Holocene", "marker-symbol": "vol-red" }, "geometry": { "type": "Point", "coordinates": [ 109.08, 47.12 ] } },
{ "type": "Feature", "properties": { "Name": "Butajiri-Silti Field", "Country": "Ethiopia", "Latitude": "8.05", "Longitude": "38.35", "Elevation": "2281", "Type": "Fissure vent", "Status": "Holocene", "marker-symbol": "vol-red" }, "geometry": { "type": "Point", "coordinates": [ 38.35, 8.05 ] } },
{ "type": "Feature", "properties": { "Name": "Buzzard Creek", "Country": "United States", "Latitude": "64.07", "Longitude": "-148.42", "Elevation": "830", "Type": "Tuff rings", "Status": "Radiocarbon", "marker-symbol": "vol-red" }, "geometry": { "type": "Point", "coordinates": [ -148.42, 64.07 ] } },
{ "type": "Feature", "properties": { "Name": "Cabalian", "Country": "Philippines", "Latitude": "10.287", "Longitude": "125.22", "Elevation": "945", "Type": "Stratovolcano", "Status": "Holocene", "marker-symbol": "vol-red" }, "geometry": { "type": "Point", "coordinates": [ 125.22, 10.287 ] } },
{ "type": "Feature", "properties": { "Name": "Caburga", "Country": "Chile", "Latitude": "-39.2", "Longitude": "-71.83", "Elevation": "995", "Type": "Cinder cone", "Status": "Tephrochronology", "marker-symbol": "vol-red" }, "geometry": { "type": "Point", "coordinates": [ -71.83, -39.2 ] } },
{ "type": "Feature", "properties": { "Name": "Cagua", "Country": "Philippines", "Latitude": "18.222", "Longitude": "122.123", "Elevation": "1133", "Type": "Stratovolcano", "Status": "Holocene", "marker-symbol": "vol-red" }, "geometry": { "type": "Point", "coordinates": [ 122.123, 18.222 ] } },
{ "type": "Feature", "properties": { "Name": "Calabozos", "Country": "Chile", "Latitude": "-35.558", "Longitude": "-70.496", "Elevation": "3508", "Type": "Caldera", "Status": "Holocene", "marker-symbol": "vol-red" }, "geometry": { "type": "Point", "coordinates": [ -70.496, -35.558 ] } },
{ "type": "Feature", "properties": { "Name": "Calatrava Volc Field", "Country": "Spain", "Latitude": "38.867", "Longitude": "-4.017", "Elevation": "1117", "Type": "Pyroclastic cones", "Status": "Radiocarbon", "marker-symbol": "vol-red" }, "geometry": { "type": "Point", "coordinates": [ -4.017, 38.867 ] } },
{ "type": "Feature", "properties": { "Name": "Calayo", "Country": "Philippines", "Latitude": "7.877", "Longitude": "125.068", "Elevation": "646", "Type": "Tuff cone", "Status": "Historical", "marker-symbol": "vol-red" }, "geometry": { "type": "Point", "coordinates": [ 125.068, 7.877 ] } },
{ "type": "Feature", "properties": { "Name": "Calbuco", "Country": "Chile", "Latitude": "-41.326", "Longitude": "-72.614", "Elevation": "2003", "Type": "Stratovolcano", "Status": "Historical", "marker-symbol": "vol-red" }, "geometry": { "type": "Point", "coordinates": [ -72.614, -41.326 ] } },
{ "type": "Feature", "properties": { "Name": "Callaqui", "Country": "Chile", "Latitude": "-37.92", "Longitude": "-71.45", "Elevation": "3164", "Type": "Stratovolcano", "Status": "Historical", "marker-symbol": "vol-red" }, "geometry": { "type": "Point", "coordinates": [ -71.45, -37.92 ] } },
{ "type": "Feature", "properties": { "Name": "Cameroon, Mt.", "Country": "Cameroon", "Latitude": "4.203", "Longitude": "9.17", "Elevation": "4095", "Type": "Stratovolcano", "Status": "Historical", "marker-symbol": "vol-red" }, "geometry": { "type": "Point", "coordinates": [ 9.17, 4.203 ] } },
{ "type": "Feature", "properties": { "Name": "Camiguin de Babuyanes", "Country": "Philippines", "Latitude": "18.83", "Longitude": "121.86", "Elevation": "712", "Type": "Stratovolcano", "Status": "Historical", "marker-symbol": "vol-red" }, "geometry": { "type": "Point", "coordinates": [ 121.86, 18.83 ] } },
{ "type": "Feature", "properties": { "Name": "Campi Flegrei", "Country": "Italy", "Latitude": "40.827", "Longitude": "14.139", "Elevation": "458", "Type": "Caldera", "Status": "Historical", "marker-symbol": "vol-red" }, "geometry": { "type": "Point", "coordinates": [ 14.139, 40.827 ] } },
{ "type": "Feature", "properties": { "Name": "Campi Flegrei Mar Sicilia", "Country": "Italy", "Latitude": "37.1", "Longitude": "12.7", "Elevation": "-8", "Type": "Submarine volcanoes", "Status": "Historical", "marker-symbol": "vol-red" }, "geometry": { "type": "Point", "coordinates": [ 12.7, 37.1 ] } },
{ "type": "Feature", "properties": { "Name": "Candlemas Island", "Country": "Antarctica", "Latitude": "-57.08", "Longitude": "-26.67", "Elevation": "550", "Type": "Stratovolcano", "Status": "Historical", "marker-symbol": "vol-red" }, "geometry": { "type": "Point", "coordinates": [ -26.67, -57.08 ] } },
{ "type": "Feature", "properties": { "Name": "Canlaon", "Country": "Philippines", "Latitude": "10.412", "Longitude": "123.132", "Elevation": "2435", "Type": "Stratovolcano", "Status": "Historical", "marker-symbol": "vol-red" }, "geometry": { "type": "Point", "coordinates": [ 123.132, 10.412 ] } },
{ "type": "Feature", "properties": { "Name": "Carlisle", "Country": "United States", "Latitude": "52.9", "Longitude": "-170.05", "Elevation": "1620", "Type": "Stratovolcano", "Status": "Historical", "marker-symbol": "vol-red" }, "geometry": { "type": "Point", "coordinates": [ -170.05, 52.9 ] } },
{ "type": "Feature", "properties": { "Name": "Carran-Los Venados", "Country": "Chile", "Latitude": "-40.35", "Longitude": "-72.07", "Elevation": "1114", "Type": "Pyroclastic cone", "Status": "Historical", "marker-symbol": "vol-red" }, "geometry": { "type": "Point", "coordinates": [ -72.07, -40.35 ] } },
{ "type": "Feature", "properties": { "Name": "Carrizozo", "Country": "United States", "Latitude": "33.78", "Longitude": "-105.93", "Elevation": "1731", "Type": "Cinder cone", "Status": "Holocene", "marker-symbol": "vol-red" }, "geometry": { "type": "Point", "coordinates": [ -105.93, 33.78 ] } },
{ "type": "Feature", "properties": { "Name": "Casiri, Nevados", "Country": "Peru", "Latitude": "-17.47", "Longitude": "-69.82", "Elevation": "5650", "Type": "Stratovolcano", "Status": "Holocene", "marker-symbol": "vol-red" }, "geometry": { "type": "Point", "coordinates": [ -69.82, -17.47 ] } },
{ "type": "Feature", "properties": { "Name": "Cayambe", "Country": "Ecuador", "Latitude": "0.029", "Longitude": "-77.986", "Elevation": "5790", "Type": "Compound volcano", "Status": "Historical", "marker-symbol": "vol-red" }, "geometry": { "type": "Point", "coordinates": [ -77.986, 0.029 ] } },
{ "type": "Feature", "properties": { "Name": "Cayambe", "Country": "Ecuador", "Latitude": "0.029", "Longitude": "-77.986", "Elevation": "5790", "Type": "Compound volcano", "Status": "Historical", "marker-symbol": "vol-red" }, "geometry": { "type": "Point", "coordinates": [ -77.986, 0.029 ] } },
{ "type": "Feature", "properties": { "Name": "Cayute-La Vigueria", "Country": "Chile", "Latitude": "-41.25", "Longitude": "-72.27", "Elevation": "506", "Type": "Pyroclastic cone", "Status": "Holocene", "marker-symbol": "vol-red" }, "geometry": { "type": "Point", "coordinates": [ -72.27, -41.25 ] } },
{ "type": "Feature", "properties": { "Name": "Cayutu-La Viguera", "Country": "Chile", "Latitude": "-41.25", "Longitude": "-72.267", "Elevation": "506", "Type": "Pyroclastic cones", "Status": "Tephrochronology", "marker-symbol": "vol-red" }, "geometry": { "type": "Point", "coordinates": [ -72.267, -41.25 ] } },
{ "type": "Feature", "properties": { "Name": "Ceboruco", "Country": "Mexico", "Latitude": "21.125", "Longitude": "-104.508", "Elevation": "2280", "Type": "Stratovolcano", "Status": "Historical", "marker-symbol": "vol-red" }, "geometry": { "type": "Point", "coordinates": [ -104.508, 21.125 ] } },
{ "type": "Feature", "properties": { "Name": "Cendres, Ile des", "Country": "Vietnam", "Latitude": "10.158", "Longitude": "109.014", "Elevation": "-20", "Type": "Submarine volcanoes", "Status": "Historical", "marker-symbol": "vol-red" }, "geometry": { "type": "Point", "coordinates": [ 109.014, 10.158 ] } },
{ "type": "Feature", "properties": { "Name": "Central Island", "Country": "Kenya", "Latitude": "3.5", "Longitude": "36.042", "Elevation": "550", "Type": "Stratovolcano", "Status": "Holocene", "marker-symbol": "vol-red" }, "geometry": { "type": "Point", "coordinates": [ 36.042, 3.5 ] } },
{ "type": "Feature", "properties": { "Name": "Cereme", "Country": "Indonesia", "Latitude": "-6.892", "Longitude": "108.4", "Elevation": "3078", "Type": "Stratovolcano", "Status": "Historical", "marker-symbol": "vol-red" }, "geometry": { "type": "Point", "coordinates": [ 108.4, -6.892 ] } },
{ "type": "Feature", "properties": { "Name": "Ch'uga-ryong", "Country": "North Korea", "Latitude": "38.33", "Longitude": "127.33", "Elevation": "452", "Type": "Shield volcano", "Status": "Holocene", "marker-symbol": "vol-red" }, "geometry": { "type": "Point", "coordinates": [ 127.33, 38.33 ] } },
{ "type": "Feature", "properties": { "Name": "Chacana", "Country": "Ecuador", "Latitude": "-0.375", "Longitude": "-78.25", "Elevation": "4643", "Type": "Caldera", "Status": "Historical", "marker-symbol": "vol-red" }, "geometry": { "type": "Point", "coordinates": [ -78.25, -0.375 ] } },
{ "type": "Feature", "properties": { "Name": "Chachani, Nevado", "Country": "Peru", "Latitude": "-16.191", "Longitude": "-71.53", "Elevation": "6057", "Type": "Stratovolcano", "Status": "Holocene", "marker-symbol": "vol-red" }, "geometry": { "type": "Point", "coordinates": [ -71.53, -16.191 ] } },
{ "type": "Feature", "properties": { "Name": "Chachani, Nevado", "Country": "Peru", "Latitude": "-16.191", "Longitude": "-71.53", "Elevation": "6057", "Type": "Stratovolcano", "Status": "Holocene?", "marker-symbol": "vol-red" }, "geometry": { "type": "Point", "coordinates": [ -71.53, -16.191 ] } },
{ "type": "Feature", "properties": { "Name": "Chagulak", "Country": "United States", "Latitude": "52.57", "Longitude": "-171.13", "Elevation": "1142", "Type": "Stratovolcano", "Status": "Holocene", "marker-symbol": "vol-red" }, "geometry": { "type": "Point", "coordinates": [ -171.13, 52.57 ] } },
{ "type": "Feature", "properties": { "Name": "Chaine des Puys", "Country": "France", "Latitude": "45.775", "Longitude": "2.967", "Elevation": "1464", "Type": "Cinder cone", "Status": "Radiocarbon", "marker-symbol": "vol-red" }, "geometry": { "type": "Point", "coordinates": [ 2.967, 45.775 ] } },
{ "type": "Feature", "properties": { "Name": "Chaiten", "Country": "Chile", "Latitude": "-42.833", "Longitude": "-72.646", "Elevation": "962", "Type": "Caldera", "Status": "Holocene", "marker-symbol": "vol-red" }, "geometry": { "type": "Point", "coordinates": [ -72.646, -42.833 ] } },
{ "type": "Feature", "properties": { "Name": "Changbaishan", "Country": "North Korea", "Latitude": "41.98", "Longitude": "128.08", "Elevation": "2744", "Type": "Stratovolcano", "Status": "Historical", "marker-symbol": "vol-red" }, "geometry": { "type": "Point", "coordinates": [ 128.08, 41.98 ] } },
{ "type": "Feature", "properties": { "Name": "Chapulul, Cerro", "Country": "Chile", "Latitude": "-38.37", "Longitude": "-71.08", "Elevation": "2143", "Type": "Cinder cone", "Status": "Holocene", "marker-symbol": "vol-red" }, "geometry": { "type": "Point", "coordinates": [ -71.08, -38.37 ] } },
{ "type": "Feature", "properties": { "Name": "Cherny", "Country": "Russia", "Latitude": "56.82", "Longitude": "159.67", "Elevation": "1778", "Type": "Stratovolcano", "Status": "Holocene", "marker-symbol": "vol-red" }, "geometry": { "type": "Point", "coordinates": [ 159.67, 56.82 ] } },
{ "type": "Feature", "properties": { "Name": "Cherpuk Group", "Country": "Russia", "Latitude": "55.55", "Longitude": "157.467", "Elevation": "1868", "Type": "Pyroclastic cones", "Status": "Radiocarbon", "marker-symbol": "vol-red" }, "geometry": { "type": "Point", "coordinates": [ 157.467, 55.55 ] } },
{ "type": "Feature", "properties": { "Name": "Chichinautzin", "Country": "Mexico", "Latitude": "19.08", "Longitude": "-99.13", "Elevation": "3930", "Type": "Volcanic field", "Status": "Radiocarbon", "marker-symbol": "vol-red" }, "geometry": { "type": "Point", "coordinates": [ -99.13, 19.08 ] } },
{ "type": "Feature", "properties": { "Name": "Chichon, El", "Country": "Mexico", "Latitude": "17.36", "Longitude": "-93.228", "Elevation": "1150", "Type": "Tuff cone", "Status": "Historical", "marker-symbol": "vol-red" }, "geometry": { "type": "Point", "coordinates": [ -93.228, 17.36 ] } },
{ "type": "Feature", "properties": { "Name": "Chiginagak", "Country": "United States", "Latitude": "57.13", "Longitude": "-157", "Elevation": "2075", "Type": "Stratovolcano", "Status": "Historical", "marker-symbol": "vol-red" }, "geometry": { "type": "Point", "coordinates": [ -157.0, 57.13 ] } },
{ "type": "Feature", "properties": { "Name": "Chikurachki", "Country": "Russia", "Latitude": "50.325", "Longitude": "155.458", "Elevation": "1816", "Type": "Stratovolcano", "Status": "Historical", "marker-symbol": "vol-red" }, "geometry": { "type": "Point", "coordinates": [ 155.458, 50.325 ] } },
{ "type": "Feature", "properties": { "Name": "Chiliques", "Country": "Chile", "Latitude": "-23.58", "Longitude": "-67.7", "Elevation": "5778", "Type": "Stratovolcano", "Status": "Holocene", "marker-symbol": "vol-red" }, "geometry": { "type": "Point", "coordinates": [ -67.7, -23.58 ] } },
{ "type": "Feature", "properties": { "Name": "Chiliques", "Country": "Chile", "Latitude": "-23.583", "Longitude": "-67.7", "Elevation": "5778", "Type": "Stratovolcano", "Status": "Holocene?", "marker-symbol": "vol-red" }, "geometry": { "type": "Point", "coordinates": [ -67.7, -23.583 ] } },
{ "type": "Feature", "properties": { "Name": "Chillan, Nevados de", "Country": "Chile", "Latitude": "-36.863", "Longitude": "-71.377", "Elevation": "3212", "Type": "Stratovolcano", "Status": "Historical", "marker-symbol": "vol-red" }, "geometry": { "type": "Point", "coordinates": [ -71.377, -36.863 ] } },
{ "type": "Feature", "properties": { "Name": "Chimborazo", "Country": "Ecuador", "Latitude": "-1.464", "Longitude": "-78.815", "Elevation": "6310", "Type": "Stratovolcano", "Status": "Radiocarbon", "marker-symbol": "vol-red" }, "geometry": { "type": "Point", "coordinates": [ -78.815, -1.464 ] } },
{ "type": "Feature", "properties": { "Name": "Chinameca", "Country": "El Salvador", "Latitude": "13.475", "Longitude": "-88.32", "Elevation": "1228", "Type": "Stratovolcano", "Status": "Holocene", "marker-symbol": "vol-red" }, "geometry": { "type": "Point", "coordinates": [ -88.32, 13.475 ] } },
{ "type": "Feature", "properties": { "Name": "Chingo Volc Field", "Country": "Guatemala", "Latitude": "14.12", "Longitude": "-89.73", "Elevation": "1775", "Type": "Stratovolcano", "Status": "Holocene", "marker-symbol": "vol-red" }, "geometry": { "type": "Point", "coordinates": [ -89.73, 14.12 ] } },
{ "type": "Feature", "properties": { "Name": "Chiquimula Volc Field", "Country": "Guatemala", "Latitude": "14.83", "Longitude": "-89.55", "Elevation": "1192", "Type": "Cinder cone", "Status": "Holocene", "marker-symbol": "vol-red" }, "geometry": { "type": "Point", "coordinates": [ -89.55, 14.83 ] } },
{ "type": "Feature", "properties": { "Name": "Chiracha", "Country": "Ethiopia", "Latitude": "6.65", "Longitude": "38.12", "Elevation": "1650", "Type": "Stratovolcano", "Status": "Holocene", "marker-symbol": "vol-red" }, "geometry": { "type": "Point", "coordinates": [ 38.12, 6.65 ] } },
{ "type": "Feature", "properties": { "Name": "Chirinkotan", "Country": "Russia", "Latitude": "48.98", "Longitude": "153.48", "Elevation": "724", "Type": "Stratovolcano", "Status": "Historical", "marker-symbol": "vol-red" }, "geometry": { "type": "Point", "coordinates": [ 153.48, 48.98 ] } },
{ "type": "Feature", "properties": { "Name": "Chirip", "Country": "Russia", "Latitude": "45.38", "Longitude": "147.92", "Elevation": "1589", "Type": "Stratovolcano", "Status": "Historical", "marker-symbol": "vol-red" }, "geometry": { "type": "Point", "coordinates": [ 147.92, 45.38 ] } },
{ "type": "Feature", "properties": { "Name": "Chirpoi", "Country": "Russia", "Latitude": "46.525", "Longitude": "150.875", "Elevation": "742", "Type": "Caldera", "Status": "Historical", "marker-symbol": "vol-red" }, "geometry": { "type": "Point", "coordinates": [ 150.875, 46.525 ] } },
{ "type": "Feature", "properties": { "Name": "Chokai", "Country": "Japan", "Latitude": "39.08", "Longitude": "140.03", "Elevation": "2237", "Type": "Stratovolcano", "Status": "Historical", "marker-symbol": "vol-red" }, "geometry": { "type": "Point", "coordinates": [ 140.03, 39.08 ] } },
{ "type": "Feature", "properties": { "Name": "Chyulu Hills", "Country": "Kenya", "Latitude": "-2.68", "Longitude": "37.88", "Elevation": "2188", "Type": "Volcanic field", "Status": "Anthropology", "marker-symbol": "vol-red" }, "geometry": { "type": "Point", "coordinates": [ 37.88, -2.68 ] } },
{ "type": "Feature", "properties": { "Name": "Ciguatepe, Cerro El", "Country": "Nicaragua", "Latitude": "12.53", "Longitude": "-86.142", "Elevation": "603", "Type": "Stratovolcano", "Status": "Holocene", "marker-symbol": "vol-red" }, "geometry": { "type": "Point", "coordinates": [ -86.142, 12.53 ] } },
{ "type": "Feature", "properties": { "Name": "Cinnamon Butte", "Country": "United States", "Latitude": "43.241", "Longitude": "-122.108", "Elevation": "1956", "Type": "Cinder cone", "Status": "Holocene", "marker-symbol": "vol-red" }, "geometry": { "type": "Point", "coordinates": [ -122.108, 43.241 ] } },
{ "type": "Feature", "properties": { "Name": "Cinotepec, Cerro", "Country": "El Salvador", "Latitude": "14.02", "Longitude": "-89.25", "Elevation": "665", "Type": "Volcanic field", "Status": "Holocene", "marker-symbol": "vol-red" }, "geometry": { "type": "Point", "coordinates": [ -89.25, 14.02 ] } },
{ "type": "Feature", "properties": { "Name": "Clark", "Country": "New Zealand", "Latitude": "-36.446", "Longitude": "177.839", "Elevation": "-860", "Type": "Submarine volcano", "Status": "Fumarolic", "marker-symbol": "vol-red" }, "geometry": { "type": "Point", "coordinates": [ 177.839, -36.446 ] } },
{ "type": "Feature", "properties": { "Name": "Clear Lake", "Country": "United States", "Latitude": "38.97", "Longitude": "-122.77", "Elevation": "1439", "Type": "Volcanic field", "Status": "Holocene", "marker-symbol": "vol-red" }, "geometry": { "type": "Point", "coordinates": [ -122.77, 38.97 ] } },
{ "type": "Feature", "properties": { "Name": "Cleft Segment", "Country": "Pacific Ocean", "Latitude": "44.83", "Longitude": "-130.3", "Elevation": "-2140", "Type": "Submarine volcano", "Status": "Historical", "marker-symbol": "vol-red" }, "geometry": { "type": "Point", "coordinates": [ -130.3, 44.83 ] } },
{ "type": "Feature", "properties": { "Name": "Cleveland", "Country": "United States", "Latitude": "52.82", "Longitude": "-169.95", "Elevation": "1730", "Type": "Stratovolcano", "Status": "Historical", "marker-symbol": "vol-red" }, "geometry": { "type": "Point", "coordinates": [ -169.95, 52.82 ] } },
{ "type": "Feature", "properties": { "Name": "Coatepeque Caldera", "Country": "El Salvador", "Latitude": "13.87", "Longitude": "-89.55", "Elevation": "746", "Type": "Caldera", "Status": "Holocene", "marker-symbol": "vol-red" }, "geometry": { "type": "Point", "coordinates": [ -89.55, 13.87 ] } },
{ "type": "Feature", "properties": { "Name": "Cochons, Ile Aux", "Country": "Indian Ocean", "Latitude": "-46.1", "Longitude": "50.23", "Elevation": "775", "Type": "Stratovolcano", "Status": "Holocene", "marker-symbol": "vol-red" }, "geometry": { "type": "Point", "coordinates": [ 50.23, -46.1 ] } },
{ "type": "Feature", "properties": { "Name": "Cofre de Perote", "Country": "Mexico", "Latitude": "19.492", "Longitude": "-97.15", "Elevation": "4282", "Type": "Shield volcano", "Status": "Radiocarbon", "marker-symbol": "vol-red" }, "geometry": { "type": "Point", "coordinates": [ -97.15, 19.492 ] } },
{ "type": "Feature", "properties": { "Name": "Colachi", "Country": "Chile", "Latitude": "-23.23", "Longitude": "-67.65", "Elevation": "5631", "Type": "Stratovolcano", "Status": "Holocene", "marker-symbol": "vol-red" }, "geometry": { "type": "Point", "coordinates": [ -67.65, -23.23 ] } },
{ "type": "Feature", "properties": { "Name": "Coleman Seamount", "Country": "Solomon Is.", "Latitude": "-8.83", "Longitude": "157.17", "Elevation": "0", "Type": "Submarine volcano", "Status": "Holocene", "marker-symbol": "vol-red" }, "geometry": { "type": "Point", "coordinates": [ 157.17, -8.83 ] } },
{ "type": "Feature", "properties": { "Name": "Colima", "Country": "Mexico", "Latitude": "19.514", "Longitude": "-103.62", "Elevation": "3850", "Type": "Stratovolcano", "Status": "Historical", "marker-symbol": "vol-red" }, "geometry": { "type": "Point", "coordinates": [ -103.62, 19.514 ] } },
{ "type": "Feature", "properties": { "Name": "Colluma, Cerro", "Country": "Bolivia", "Latitude": "-18.5", "Longitude": "-68.07", "Elevation": "3876", "Type": "Maar", "Status": "Holocene", "marker-symbol": "vol-red" }, "geometry": { "type": "Point", "coordinates": [ -68.07, -18.5 ] } },
{ "type": "Feature", "properties": { "Name": "Colo [Una Una]", "Country": "Indonesia", "Latitude": "-0.17", "Longitude": "121.608", "Elevation": "507", "Type": "Stratovolcano", "Status": "Historical", "marker-symbol": "vol-red" }, "geometry": { "type": "Point", "coordinates": [ 121.608, -0.17 ] } },
{ "type": "Feature", "properties": { "Name": "Comondu-La Purisima", "Country": "Mexico", "Latitude": "26", "Longitude": "-111.92", "Elevation": "780", "Type": "Volcanic field", "Status": "Holocene", "marker-symbol": "vol-red" }, "geometry": { "type": "Point", "coordinates": [ -111.92, 26.0 ] } },
{ "type": "Feature", "properties": { "Name": "Concepcion", "Country": "Nicaragua", "Latitude": "11.538", "Longitude": "-85.622", "Elevation": "1700", "Type": "Stratovolcano", "Status": "Historical", "marker-symbol": "vol-red" }, "geometry": { "type": "Point", "coordinates": [ -85.622, 11.538 ] } },
{ "type": "Feature", "properties": { "Name": "Conchagua", "Country": "El Salvador", "Latitude": "13.277", "Longitude": "-87.853", "Elevation": "1250", "Type": "Stratovolcano", "Status": "Uncertain", "marker-symbol": "vol-red" }, "geometry": { "type": "Point", "coordinates": [ -87.853, 13.277 ] } },
{ "type": "Feature", "properties": { "Name": "Conchaguita", "Country": "El Salvador", "Latitude": "13.22", "Longitude": "-87.765", "Elevation": "550", "Type": "Stratovolcano", "Status": "Historical", "marker-symbol": "vol-red" }, "geometry": { "type": "Point", "coordinates": [ -87.765, 13.22 ] } },
{ "type": "Feature", "properties": { "Name": "Cook, Isla", "Country": "Chile", "Latitude": "-54.95", "Longitude": "-70.27", "Elevation": "150", "Type": "Lava dome", "Status": "Holocene", "marker-symbol": "vol-red" }, "geometry": { "type": "Point", "coordinates": [ -70.27, -54.95 ] } },
{ "type": "Feature", "properties": { "Name": "Copahue", "Country": "Chile", "Latitude": "-37.85", "Longitude": "-71.17", "Elevation": "2965", "Type": "Stratovolcano", "Status": "Historical", "marker-symbol": "vol-red" }, "geometry": { "type": "Point", "coordinates": [ -71.17, -37.85 ] } },
{ "type": "Feature", "properties": { "Name": "Copiapo", "Country": "Chile", "Latitude": "-27.3", "Longitude": "-69.13", "Elevation": "6052", "Type": "Stratovolcano", "Status": "Uncertain", "marker-symbol": "vol-red" }, "geometry": { "type": "Point", "coordinates": [ -69.13, -27.3 ] } },
{ "type": "Feature", "properties": { "Name": "Corbetti Caldera", "Country": "Ethiopia", "Latitude": "7.18", "Longitude": "38.43", "Elevation": "2320", "Type": "Caldera", "Status": "Holocene", "marker-symbol": "vol-red" }, "geometry": { "type": "Point", "coordinates": [ 38.43, 7.18 ] } },
{ "type": "Feature", "properties": { "Name": "Corcovado", "Country": "Chile", "Latitude": "-43.18", "Longitude": "-72.8", "Elevation": "2300", "Type": "Stratovolcano", "Status": "Historical", "marker-symbol": "vol-red" }, "geometry": { "type": "Point", "coordinates": [ -72.8, -43.18 ] } },
{ "type": "Feature", "properties": { "Name": "Cordon Chalviri", "Country": "Chile", "Latitude": "-23.85", "Longitude": "-67.62", "Elevation": "5623", "Type": "Stratovolcano", "Status": "Holocene", "marker-symbol": "vol-red" }, "geometry": { "type": "Point", "coordinates": [ -67.62, -23.85 ] } },
{ "type": "Feature", "properties": { "Name": "Cordon de Puntas Negras", "Country": "Chile", "Latitude": "-23.75", "Longitude": "-67.53", "Elevation": "5852", "Type": "Stratovolcano", "Status": "Holocene", "marker-symbol": "vol-red" }, "geometry": { "type": "Point", "coordinates": [ -67.53, -23.75 ] } },
{ "type": "Feature", "properties": { "Name": "Cordon del Azufre", "Country": "Argentina", "Latitude": "-25.33", "Longitude": "-68.52", "Elevation": "5463", "Type": "Complex volcano", "Status": "Holocene", "marker-symbol": "vol-red" }, "geometry": { "type": "Point", "coordinates": [ -68.52, -25.33 ] } },
{ "type": "Feature", "properties": { "Name": "Coronado", "Country": "Mexico", "Latitude": "29.08", "Longitude": "-113.513", "Elevation": "440", "Type": "Stratovolcano", "Status": "Fumarolic", "marker-symbol": "vol-red" }, "geometry": { "type": "Point", "coordinates": [ -113.513, 29.08 ] } },
{ "type": "Feature", "properties": { "Name": "Coropuna", "Country": "Peru", "Latitude": "-15.52", "Longitude": "-72.65", "Elevation": "6377", "Type": "Stratovolcano", "Status": "Holocene", "marker-symbol": "vol-red" }, "geometry": { "type": "Point", "coordinates": [ -72.65, -15.52 ] } },
{ "type": "Feature", "properties": { "Name": "Corvo", "Country": "Portugal", "Latitude": "39.67", "Longitude": "-31.07", "Elevation": "715", "Type": "Stratovolcano", "Status": "Holocene", "marker-symbol": "vol-red" }, "geometry": { "type": "Point", "coordinates": [ -31.07, 39.67 ] } },
{ "type": "Feature", "properties": { "Name": "Cosiguina", "Country": "Nicaragua", "Latitude": "12.98", "Longitude": "-87.57", "Elevation": "872", "Type": "Stratovolcano", "Status": "Historical", "marker-symbol": "vol-red" }, "geometry": { "type": "Point", "coordinates": [ -87.57, 12.98 ] } },
{ "type": "Feature", "properties": { "Name": "Coso Volc Field", "Country": "United States", "Latitude": "36.03", "Longitude": "-117.82", "Elevation": "2400", "Type": "Lava dome", "Status": "Holocene", "marker-symbol": "vol-red" }, "geometry": { "type": "Point", "coordinates": [ -117.82, 36.03 ] } },
{ "type": "Feature", "properties": { "Name": "Cotopaxi", "Country": "Ecuador", "Latitude": "-0.677", "Longitude": "-78.436", "Elevation": "5911", "Type": "Stratovolcano", "Status": "Historical", "marker-symbol": "vol-red" }, "geometry": { "type": "Point", "coordinates": [ -78.436, -0.677 ] } },
{ "type": "Feature", "properties": { "Name": "Crater Basalt Volc Field", "Country": "Argentina", "Latitude": "-42.017", "Longitude": "-70.183", "Elevation": "1359", "Type": "Cinder cones", "Status": "Holocene", "marker-symbol": "vol-red" }, "geometry": { "type": "Point", "coordinates": [ -70.183, -42.017 ] } },
{ "type": "Feature", "properties": { "Name": "Crater Lake", "Country": "United States", "Latitude": "42.93", "Longitude": "-122.12", "Elevation": "2487", "Type": "Caldera", "Status": "Radiocarbon", "marker-symbol": "vol-red" }, "geometry": { "type": "Point", "coordinates": [ -122.12, 42.93 ] } },
{ "type": "Feature", "properties": { "Name": "Crater Mountain", "Country": "Papua New Guinea", "Latitude": "-6.58", "Longitude": "145.08", "Elevation": "3233", "Type": "Stratovolcano", "Status": "Holocene", "marker-symbol": "vol-red" }, "geometry": { "type": "Point", "coordinates": [ 145.08, -6.58 ] } },
{ "type": "Feature", "properties": { "Name": "Craters of the Moon", "Country": "United States", "Latitude": "43.42", "Longitude": "-113.5", "Elevation": "2005", "Type": "Cinder cone", "Status": "Radiocarbon", "marker-symbol": "vol-red" }, "geometry": { "type": "Point", "coordinates": [ -113.5, 43.42 ] } },
{ "type": "Feature", "properties": { "Name": "Crow Lagoon", "Country": "Canada", "Latitude": "54.7", "Longitude": "-130.23", "Elevation": "335", "Type": "Pyroclastic cone", "Status": "Holocene", "marker-symbol": "vol-red" }, "geometry": { "type": "Point", "coordinates": [ -130.23, 54.7 ] } },
{ "type": "Feature", "properties": { "Name": "Cu-Lao Re Group", "Country": "Vietnam", "Latitude": "15.38", "Longitude": "109.12", "Elevation": "181", "Type": "Volcanic field", "Status": "Holocene", "marker-symbol": "vol-red" }, "geometry": { "type": "Point", "coordinates": [ 109.12, 15.38 ] } },
{ "type": "Feature", "properties": { "Name": "Cuicocha", "Country": "Ecuador", "Latitude": "0.308", "Longitude": "-78.364", "Elevation": "3246", "Type": "Caldera", "Status": "Radiocarbon", "marker-symbol": "vol-red" }, "geometry": { "type": "Point", "coordinates": [ -78.364, 0.308 ] } },
{ "type": "Feature", "properties": { "Name": "Cuilapa-Barbarena", "Country": "Guatemala", "Latitude": "14.333", "Longitude": "-90.4", "Elevation": "1454", "Type": "Volcanic field", "Status": "Holocene", "marker-symbol": "vol-red" }, "geometry": { "type": "Point", "coordinates": [ -90.4, 14.333 ] } },
{ "type": "Feature", "properties": { "Name": "Cuilapa-Barbarena", "Country": "Guatemala", "Latitude": "14.33", "Longitude": "-90.4", "Elevation": "1454", "Type": "Volcanic field", "Status": "Holocene", "marker-symbol": "vol-red" }, "geometry": { "type": "Point", "coordinates": [ -90.4, 14.33 ] } },
{ "type": "Feature", "properties": { "Name": "Cumbal", "Country": "Colombia", "Latitude": "0.98", "Longitude": "-77.88", "Elevation": "4764", "Type": "Stratovolcano", "Status": "Historical", "marker-symbol": "vol-red" }, "geometry": { "type": "Point", "coordinates": [ -77.88, 0.98 ] } },
{ "type": "Feature", "properties": { "Name": "Cumbres, Las", "Country": "Mexico", "Latitude": "19.15", "Longitude": "-97.27", "Elevation": "3940", "Type": "Stratovolcano", "Status": "Radiocarbon", "marker-symbol": "vol-red" }, "geometry": { "type": "Point", "coordinates": [ -97.27, 19.15 ] } },
{ "type": "Feature", "properties": { "Name": "Curacoa", "Country": "Tonga", "Latitude": "-15.62", "Longitude": "-173.67", "Elevation": "-33", "Type": "Submarine volcano", "Status": "Historical", "marker-symbol": "vol-red" }, "geometry": { "type": "Point", "coordinates": [ -173.67, -15.62 ] } },
{ "type": "Feature", "properties": { "Name": "Curacoa", "Country": "Tonga", "Latitude": "-15.617", "Longitude": "-173.667", "Elevation": "-33", "Type": "Submarine volcano", "Status": "Historical", "marker-symbol": "vol-red" }, "geometry": { "type": "Point", "coordinates": [ -173.667, -15.617 ] } },
{ "type": "Feature", "properties": { "Name": "Curtis Island", "Country": "New Zealand", "Latitude": "-30.542", "Longitude": "-178.561", "Elevation": "137", "Type": "Submarine volcano", "Status": "Uncertain", "marker-symbol": "vol-red" }, "geometry": { "type": "Point", "coordinates": [ -178.561, -30.542 ] } },
{ "type": "Feature", "properties": { "Name": "Cndor, Cerro el", "Country": "Argentina", "Latitude": "-26.617", "Longitude": "-68.35", "Elevation": "6532", "Type": "Stratovolcano", "Status": "Holocene", "marker-symbol": "vol-red" }, "geometry": { "type": "Point", "coordinates": [ -68.35, -26.617 ] } },
{ "type": "Feature", "properties": { "Name": "Dabbahu", "Country": "Ethiopia", "Latitude": "12.6", "Longitude": "40.48", "Elevation": "1442", "Type": "Stratovolcano", "Status": "Holocene", "marker-symbol": "vol-red" }, "geometry": { "type": "Point", "coordinates": [ 40.48, 12.6 ] } },
{ "type": "Feature", "properties": { "Name": "Dabbayra", "Country": "Ethiopia", "Latitude": "12.38", "Longitude": "40.07", "Elevation": "1302", "Type": "Shield volcano", "Status": "Holocene", "marker-symbol": "vol-red" }, "geometry": { "type": "Point", "coordinates": [ 40.07, 12.38 ] } },
{ "type": "Feature", "properties": { "Name": "Dacht-I-Navar Group", "Country": "Afghanistan", "Latitude": "33.95", "Longitude": "67.92", "Elevation": "3800", "Type": "Lava dome", "Status": "Holocene", "marker-symbol": "vol-red" }, "geometry": { "type": "Point", "coordinates": [ 67.92, 33.95 ] } },
{ "type": "Feature", "properties": { "Name": "Daikoku", "Country": "Japan", "Latitude": "21.324", "Longitude": "144.194", "Elevation": "-323", "Type": "Submarine volcano", "Status": "Fumarolic", "marker-symbol": "vol-red" }, "geometry": { "type": "Point", "coordinates": [ 144.194, 21.324 ] } },
{ "type": "Feature", "properties": { "Name": "Daisetsu", "Country": "Japan", "Latitude": "43.68", "Longitude": "142.88", "Elevation": "2290", "Type": "Stratovolcano", "Status": "Tephrochronology", "marker-symbol": "vol-red" }, "geometry": { "type": "Point", "coordinates": [ 142.88, 43.68 ] } },
{ "type": "Feature", "properties": { "Name": "Dakataua", "Country": "Papua New Guinea", "Latitude": "-5.056", "Longitude": "150.108", "Elevation": "400", "Type": "Caldera", "Status": "Anthropology", "marker-symbol": "vol-red" }, "geometry": { "type": "Point", "coordinates": [ 150.108, -5.056 ] } },
{ "type": "Feature", "properties": { "Name": "Dalaffilla", "Country": "Ethiopia", "Latitude": "13.792", "Longitude": "40.55", "Elevation": "613", "Type": "Stratovolcano", "Status": "Holocene", "marker-symbol": "vol-red" }, "geometry": { "type": "Point", "coordinates": [ 40.55, 13.792 ] } },
{ "type": "Feature", "properties": { "Name": "Dallol", "Country": "Ethiopia", "Latitude": "14.242", "Longitude": "40.3", "Elevation": "-48", "Type": "Explosion crater", "Status": "Historical", "marker-symbol": "vol-red" }, "geometry": { "type": "Point", "coordinates": [ 40.3, 14.242 ] } },
{ "type": "Feature", "properties": { "Name": "Dama Ali", "Country": "Ethiopia", "Latitude": "11.28", "Longitude": "41.63", "Elevation": "1068", "Type": "Shield volcano", "Status": "Historical", "marker-symbol": "vol-red" }, "geometry": { "type": "Point", "coordinates": [ 41.63, 11.28 ] } },
{ "type": "Feature", "properties": { "Name": "Damavand", "Country": "Iran", "Latitude": "35.951", "Longitude": "52.109", "Elevation": "5670", "Type": "Stratovolcano", "Status": "Holocene", "marker-symbol": "vol-red" }, "geometry": { "type": "Point", "coordinates": [ 52.109, 35.951 ] } },
{ "type": "Feature", "properties": { "Name": "Dana", "Country": "United States", "Latitude": "55.62", "Longitude": "-161.22", "Elevation": "1354", "Type": "Stratovolcano", "Status": "Radiocarbon", "marker-symbol": "vol-red" }, "geometry": { "type": "Point", "coordinates": [ -161.22, 55.62 ] } },
{ "type": "Feature", "properties": { "Name": "Danau Complex", "Country": "Indonesia", "Latitude": "-6.2", "Longitude": "105.97", "Elevation": "1778", "Type": "Caldera", "Status": "Holocene", "marker-symbol": "vol-red" }, "geometry": { "type": "Point", "coordinates": [ 105.97, -6.2 ] } },
{ "type": "Feature", "properties": { "Name": "Dar-Alages", "Country": "Armenia", "Latitude": "39.7", "Longitude": "45.542", "Elevation": "3329", "Type": "Unknown", "Status": "Holocene", "marker-symbol": "vol-red" }, "geometry": { "type": "Point", "coordinates": [ 45.542, 39.7 ] } },
{ "type": "Feature", "properties": { "Name": "Dariganga Volc Field", "Country": "Mongolia", "Latitude": "45.33", "Longitude": "114", "Elevation": "1778", "Type": "Cinder cone", "Status": "Holocene", "marker-symbol": "vol-red" }, "geometry": { "type": "Point", "coordinates": [ 114.0, 45.33 ] } },
{ "type": "Feature", "properties": { "Name": "Darwin, Volcan", "Country": "Ecuador", "Latitude": "-0.18", "Longitude": "-91.28", "Elevation": "1330", "Type": "Shield volcano", "Status": "Holocene", "marker-symbol": "vol-red" }, "geometry": { "type": "Point", "coordinates": [ -91.28, -0.18 ] } },
{ "type": "Feature", "properties": { "Name": "Daun, Bukit", "Country": "Indonesia", "Latitude": "-3.38", "Longitude": "102.37", "Elevation": "2467", "Type": "Stratovolcano", "Status": "Fumarolic", "marker-symbol": "vol-red" }, "geometry": { "type": "Point", "coordinates": [ 102.37, -3.38 ] } },
{ "type": "Feature", "properties": { "Name": "Davidof", "Country": "United States", "Latitude": "51.97", "Longitude": "178.33", "Elevation": "328", "Type": "Stratovolcano", "Status": "Holocene", "marker-symbol": "vol-red" }, "geometry": { "type": "Point", "coordinates": [ 178.33, 51.97 ] } },
{ "type": "Feature", "properties": { "Name": "Davis Lake", "Country": "United States", "Latitude": "43.57", "Longitude": "-121.82", "Elevation": "2163", "Type": "Volcanic field", "Status": "Radiocarbon", "marker-symbol": "vol-red" }, "geometry": { "type": "Point", "coordinates": [ -121.82, 43.57 ] } },
{ "type": "Feature", "properties": { "Name": "Dawson Strait Group", "Country": "Papua New Guinea", "Latitude": "-9.62", "Longitude": "150.88", "Elevation": "500", "Type": "Volcanic field", "Status": "Hydration Rind", "marker-symbol": "vol-red" }, "geometry": { "type": "Point", "coordinates": [ 150.88, -9.62 ] } },
{ "type": "Feature", "properties": { "Name": "Deception Island", "Country": "Antarctica", "Latitude": "-62.97", "Longitude": "-60.65", "Elevation": "576", "Type": "Caldera", "Status": "Historical", "marker-symbol": "vol-red" }, "geometry": { "type": "Point", "coordinates": [ -60.65, -62.97 ] } },
{ "type": "Feature", "properties": { "Name": "Demon", "Country": "Russia", "Latitude": "45.5", "Longitude": "148.85", "Elevation": "1205", "Type": "Stratovolcano", "Status": "Holocene", "marker-symbol": "vol-red" }, "geometry": { "type": "Point", "coordinates": [ 148.85, 45.5 ] } },
{ "type": "Feature", "properties": { "Name": "Dempo", "Country": "Indonesia", "Latitude": "-4.03", "Longitude": "103.13", "Elevation": "3173", "Type": "Stratovolcano", "Status": "Historical", "marker-symbol": "vol-red" }, "geometry": { "type": "Point", "coordinates": [ 103.13, -4.03 ] } },
{ "type": "Feature", "properties": { "Name": "Denison", "Country": "United States", "Latitude": "58.42", "Longitude": "-154.45", "Elevation": "2318", "Type": "Stratovolcano", "Status": "Uncertain", "marker-symbol": "vol-red" }, "geometry": { "type": "Point", "coordinates": [ -154.45, 58.42 ] } },
{ "type": "Feature", "properties": { "Name": "Descabezado Grande", "Country": "Chile", "Latitude": "-35.58", "Longitude": "-70.75", "Elevation": "3953", "Type": "Stratovolcano", "Status": "Historical", "marker-symbol": "vol-red" }, "geometry": { "type": "Point", "coordinates": [ -70.75, -35.58 ] } },
{ "type": "Feature", "properties": { "Name": "Devils Garden", "Country": "United States", "Latitude": "43.512", "Longitude": "-120.861", "Elevation": "1698", "Type": "Volcanic field", "Status": "Holocene", "marker-symbol": "vol-red" }, "geometry": { "type": "Point", "coordinates": [ -120.861, 43.512 ] } },
{ "type": "Feature", "properties": { "Name": "Dgida Basin", "Country": "Russia", "Latitude": "50.52", "Longitude": "103.25", "Elevation": "1500", "Type": "Cinder cone", "Status": "Holocene", "marker-symbol": "vol-red" }, "geometry": { "type": "Point", "coordinates": [ 103.25, 50.52 ] } },
{ "type": "Feature", "properties": { "Name": "Dhamar, Harras of", "Country": "Yemen", "Latitude": "14.57", "Longitude": "44.67", "Elevation": "3500", "Type": "Volcanic field", "Status": "Historical", "marker-symbol": "vol-red" }, "geometry": { "type": "Point", "coordinates": [ 44.67, 14.57 ] } },
{ "type": "Feature", "properties": { "Name": "Diable, Morne Au", "Country": "Dominica", "Latitude": "15.62", "Longitude": "-61.45", "Elevation": "861", "Type": "Stratovolcano", "Status": "Fumarolic", "marker-symbol": "vol-red" }, "geometry": { "type": "Point", "coordinates": [ -61.45, 15.62 ] } },
{ "type": "Feature", "properties": { "Name": "Diablotins, Morne", "Country": "Dominica", "Latitude": "15.5", "Longitude": "-61.42", "Elevation": "1430", "Type": "Stratovolcano", "Status": "Holocene", "marker-symbol": "vol-red" }, "geometry": { "type": "Point", "coordinates": [ -61.42, 15.5 ] } },
{ "type": "Feature", "properties": { "Name": "Diamond Craters", "Country": "United States", "Latitude": "43.1", "Longitude": "-118.75", "Elevation": "1435", "Type": "Volcanic field", "Status": "Holocene", "marker-symbol": "vol-red" }, "geometry": { "type": "Point", "coordinates": [ -118.75, 43.1 ] } },